address,agent_url,description,id,page_number,price,scrape_time,url,beds,latitude,longitude,tenure,travel_time_cw,travel_time_from_strand,travel_time_cp,bedroom_score,tenure_score,price_score,tt_score_cw,tt_score_from_strand,tt_score_cp,total_score
"Oakdale Road, Streatham, SW16",http://www.rightmove.co.uk/estate-agents/agent/Samuel-Estates/Balham-97400.html,3 bedroom flat for sale,62199288,1,600000.0,2019-07-13 07:49:55.482856,http://www.rightmove.co.uk/property-for-sale/property-62199288.html,3,51.426468,-0.125669,Leasehold,46.0,55.0,12.0,5,0,1.25,-1.0,0.0,5.0,10.25
"Reynolds Place, Blackheath, London, SE3",http://www.rightmove.co.uk/estate-agents/agent/Winkworth/Blackheath-14614.html,3 bedroom terraced house for sale,70728619,1,700000.0,2019-07-13 07:49:55.482856,http://www.rightmove.co.uk/property-for-sale/property-70728619.html,3,51.476406,0.026801,Freehold,16.0,21.0,32.0,5,3,-5.0,10.0,10.0,3.25,26.25
"Kempsford Gardens, Earl's Court, London, SW5",http://www.rightmove.co.uk/estate-agents/agent/John-D-Wood-Sales/Earls-Court-339.html,2 bedroom flat for sale,58708431,1,700000.0,2019-07-13 07:49:55.482856,http://www.rightmove.co.uk/property-for-sale/property-58708431.html,2,51.488687,-0.194967,Leasehold,44.0,70.0,38.0,0,0,-5.0,0.5,-20.0,1.75,-22.75
"Lady Margaret Road, London, N19",http://www.rightmove.co.uk/estate-agents/agent/Marsh-and-Parsons/Tufnell-Park-153443.html,2 bedroom apartment for sale,63440175,1,700000.0,2019-07-13 07:49:55.482856,http://www.rightmove.co.uk/property-for-sale/property-63440175.html,2,51.556502,-0.13547,Share of Freehold,39.0,57.0,60.0,0,3,-5.0,3.0,-2.6666666666666665,-7.5,-9.166666666666666
"Oliver Road, Walthamstow, London",http://www.rightmove.co.uk/estate-agents/agent/Central-Estate-Agents/Walthamstow-6323.html,3 bedroom terraced house for sale,63187215,1,700000.0,2019-07-13 07:49:55.482856,http://www.rightmove.co.uk/property-for-sale/property-63187215.html,3,51.582745,-0.003928,Freehold,24.0,40.0,52.0,5,3,-5.0,10.0,10.0,-3.5,19.5
"Foulser Road, London, SW17",http://www.rightmove.co.uk/estate-agents/agent/Winkworth/Tooting-58897.html,2 bedroom apartment for sale,72792235,1,700000.0,2019-07-13 07:49:55.482856,http://www.rightmove.co.uk/property-for-sale/property-72792235.html,2,51.433981,-0.159415,Share of Freehold,48.0,62.0,20.0,0,3,-5.0,-3.0,-9.333333333333332,5.0,-9.333333333333332
"Rosemary Avenue, Finchley, London, N3 ",http://www.rightmove.co.uk/estate-agents/agent/Squires-Estates/Finchley-12569.html,3 bedroom terraced house for sale,79709183,1,700000.0,2019-07-13 07:49:55.482856,http://www.rightmove.co.uk/property-for-sale/property-79709183.html,3,51.597035,-0.18443800000000002,-,41.0,61.0,73.0,5,0,-5.0,2.0,-8.0,-14.0,-20.0
"Concordia Wharf, Coldharbour, E14",http://www.rightmove.co.uk/estate-agents/agent/Felicity-J-Lord/Canary-Wharf-11472.html,2 bedroom flat for sale,72651472,1,700000.0,2019-07-13 07:49:55.482856,http://www.rightmove.co.uk/property-for-sale/property-72651472.html,2,51.502183,-0.007683,Leasehold,7.0,29.0,42.0,0,0,-5.0,10.0,10.0,0.75,15.75
"Lucerne Road, Highbury, N5",http://www.rightmove.co.uk/estate-agents/agent/Portico/Highbury-74221.html,2 bedroom flat for sale,71926297,1,700000.0,2019-07-13 07:49:55.482856,http://www.rightmove.co.uk/property-for-sale/property-71926297.html,2,51.556406,-0.09966,Leasehold,34.0,50.0,60.0,0,0,-5.0,5.5,3.333333333333334,-7.5,-3.666666666666666
"Colvin Gardens, Wanstead",http://www.rightmove.co.uk/estate-agents/agent/Churchill-Estates/Wanstead-69505.html,3 bedroom semi-detached house for sale,82999241,1,700000.0,2019-07-13 07:49:55.482856,http://www.rightmove.co.uk/property-for-sale/property-82999241.html,3,51.58422,0.032856,Freehold,22.0,38.0,50.0,5,3,-5.0,10.0,10.0,-2.5,20.5
"John Hunter Avenue, London, SW17",http://www.rightmove.co.uk/estate-agents/agent/Marsh-and-Parsons/Tooting-61662.html,2 bedroom terraced house for sale,72878260,1,700000.0,2019-07-13 07:49:55.482856,http://www.rightmove.co.uk/property-for-sale/property-72878260.html,2,51.4352,-0.170264,Freehold,50.0,64.0,24.0,0,3,-5.0,-5.0,-12.0,5.0,-14.0
"Colvin Gardens, London, E11",http://www.rightmove.co.uk/estate-agents/agent/Bairstow-Eves/Wanstead-590.html,3 bedroom semi-detached house for sale,63420627,1,700000.0,2019-07-13 07:49:55.482856,http://www.rightmove.co.uk/property-for-sale/property-63420627.html,3,51.58422,0.032856,Freehold,22.0,38.0,50.0,5,3,-5.0,10.0,10.0,-2.5,20.5
"Kossuth Street, Greenwich, SE10",http://www.rightmove.co.uk/estate-agents/agent/Purplebricks/covering-London-151079.html,3 bedroom terraced house for sale,63503244,1,700000.0,2019-07-13 07:49:55.482856,http://www.rightmove.co.uk/property-for-sale/property-63503244.html,3,51.487126,0.0033159999999999995,Freehold,16.0,23.0,33.0,5,3,-5.0,10.0,10.0,3.0,26.0
"The Vale, Southgate, London N14",http://www.rightmove.co.uk/estate-agents/agent/Nicholas-James/London-116041.html,3 bedroom semi-detached house for sale,82160711,1,700000.0,2019-07-13 07:49:55.482856,http://www.rightmove.co.uk/property-for-sale/property-82160711.html,3,51.636131,-0.12262999999999999,-,36.0,54.0,69.0,5,0,-5.0,4.5,0.6666666666666679,-12.0,-6.833333333333332
"Inderwick Road, Crouch End, London, N8",http://www.rightmove.co.uk/estate-agents/agent/Martyn-Gerrard/Crouch-End-13099.html,2 bedroom apartment for sale,83014343,1,700000.0,2019-07-13 07:49:55.482856,http://www.rightmove.co.uk/property-for-sale/property-83014343.html,2,51.581434,-0.116123,Share of Freehold,41.0,57.0,70.0,0,3,-5.0,2.0,-2.6666666666666665,-12.5,-15.166666666666666
"Chiswick High Road, London",http://www.rightmove.co.uk/estate-agents/agent/Barnard-Marcus/Bedford-Park-1883.html,2 bedroom flat for sale,72667819,1,700000.0,2019-07-13 07:49:55.482856,http://www.rightmove.co.uk/property-for-sale/property-72667819.html,2,51.49358,-0.24699000000000002,Leasehold,49.0,80.0,48.0,0,0,-5.0,-4.0,-33.33333333333333,-1.5,-43.83333333333333
"York Road, London, N11",http://www.rightmove.co.uk/estate-agents/agent/Ellis-and-Co/Bounds-Green-22943.html,3 bedroom end of terrace house for sale,72718801,1,700000.0,2019-07-13 07:49:55.482856,http://www.rightmove.co.uk/property-for-sale/property-72718801.html,3,51.610448999999996,-0.12356199999999999,Freehold,32.0,52.0,64.0,5,3,-5.0,6.5,2.0,-9.5,2.0
"St Johns Court, South Hampstead, London",http://www.rightmove.co.uk/estate-agents/agent/Parkheath/West-Hampstead-72716.html,2 bedroom flat for sale,70697743,1,700000.0,2019-07-13 07:49:55.482856,http://www.rightmove.co.uk/property-for-sale/property-70697743.html,2,51.546165,-0.179698,-,44.0,70.0,58.0,0,0,-5.0,0.5,-20.0,-6.5,-31.0
"Heralds Place, London, SE11",http://www.rightmove.co.uk/estate-agents/agent/Purplebricks/covering-London-151079.html,2 bedroom mews house for sale,63358140,1,700000.0,2019-07-13 07:49:55.482856,http://www.rightmove.co.uk/property-for-sale/property-63358140.html,2,51.492504,-0.10666300000000001,Freehold,26.0,49.0,30.0,0,3,-5.0,9.5,4.0,3.75,15.25
"Baldry Gardens, London",http://www.rightmove.co.uk/estate-agents/agent/James-Alexander-Estate-Agents/Norbury-3327.html,3 bedroom semi-detached house for sale,72881428,1,700000.0,2019-07-13 07:49:55.482856,http://www.rightmove.co.uk/property-for-sale/property-72881428.html,3,51.420840999999996,-0.11994500000000001,-,48.0,56.0,10.0,5,0,-5.0,-3.0,-1.3333333333333333,5.0,0.666666666666667
"Forest Side, London",http://www.rightmove.co.uk/estate-agents/agent/Douglas-Allen/Chingford-2169.html,2 bedroom detached bungalow for sale,72439015,1,700000.0,2019-07-13 07:49:55.482856,http://www.rightmove.co.uk/property-for-sale/property-72439015.html,2,51.62994000000001,0.01675,Freehold,28.0,48.0,60.0,0,3,-5.0,8.5,4.666666666666667,-7.5,3.666666666666668
"Sitka House, 20 Quebec Way, London",http://www.rightmove.co.uk/estate-agents/agent/Hastings-International/Rotherhithe-11351.html,2 bedroom apartment for sale,63642060,1,700000.0,2019-07-13 07:49:55.482856,http://www.rightmove.co.uk/property-for-sale/property-63642060.html,2,51.498416,-0.040742,Leasehold,17.0,37.0,31.0,0,0,-5.0,10.0,10.0,3.5,18.5
"Northfield Avenue, Ealing, W5",http://www.rightmove.co.uk/estate-agents/agent/Purplebricks/covering-London-151079.html,3 bedroom terraced house for sale,58023672,1,700000.0,2019-07-13 07:49:55.482856,http://www.rightmove.co.uk/property-for-sale/property-58023672.html,3,51.498164,-0.313307,Freehold,57.0,85.0,56.0,5,3,-5.0,-12.0,-40.0,-5.5,-54.5
"Kew Bridge Road, Brentford",http://www.rightmove.co.uk/estate-agents/agent/Kinleigh-Folkard-and-Hayward---Sales/Chiswick-55420.html,2 bedroom flat for sale,63454707,1,700000.0,2019-07-13 07:49:55.482856,http://www.rightmove.co.uk/property-for-sale/property-63454707.html,2,51.488448,-0.28815599999999997,Leasehold,53.0,81.0,53.0,0,0,-5.0,-8.0,-34.666666666666664,-4.0,-51.666666666666664
"25 Downham Road, Islington, London, N1",http://www.rightmove.co.uk/estate-agents/agent/Winkworth/Islington-34986.html,2 bedroom apartment for sale,63421290,1,700000.0,2019-07-13 07:49:55.482856,http://www.rightmove.co.uk/property-for-sale/property-63421290.html,2,51.538826,-0.07735299999999999,Leasehold,23.0,43.0,52.0,0,0,-5.0,10.0,8.0,-3.5,9.5
"Biring House, Duke of Wellington Avenue, London, SE18",http://www.rightmove.co.uk/estate-agents/agent/Knight-Frank/Woolwich-192398.html,3 bedroom flat for sale,83272331,2,700000.0,2019-07-13 07:49:55.797780,http://www.rightmove.co.uk/property-for-sale/property-83272331.html,3,51.494434999999996,0.067482,Leasehold,22.0,12.0,39.0,5,0,-5.0,10.0,10.0,1.5,21.5
"Eton College Road, Belsize Park",http://www.rightmove.co.uk/estate-agents/agent/Kinleigh-Folkard-and-Hayward---Sales/Belsize-Park-55399.html,2 bedroom flat for sale,72600751,2,700000.0,2019-07-13 07:49:55.797780,http://www.rightmove.co.uk/property-for-sale/property-72600751.html,2,51.544427,-0.154818,Leasehold,42.0,65.0,59.0,0,0,-5.0,1.5,-13.333333333333332,-7.0,-23.833333333333332
"St. Stephen's Road, London, W13",http://www.rightmove.co.uk/estate-agents/agent/Winkworth/Ealing-and-Acton-94448.html,3 bedroom terraced house for sale,81142670,2,700000.0,2019-07-13 07:49:55.797780,http://www.rightmove.co.uk/property-for-sale/property-81142670.html,3,51.519094,-0.312067,-,59.0,76.0,60.0,5,0,-5.0,-14.0,-28.0,-7.5,-49.5
"Jubilee Terrace, Burlington Road, London, SW6",http://www.rightmove.co.uk/estate-agents/agent/Chestertons-Estate-Agents/Fulham-Parsons-Green-48856.html,2 bedroom flat for sale,82231403,2,700000.0,2019-07-13 07:49:55.797780,http://www.rightmove.co.uk/property-for-sale/property-82231403.html,2,51.470525,-0.21002800000000002,Share of Freehold,47.0,73.0,36.0,0,3,-5.0,-2.0,-24.0,2.25,-25.75
"Ericcson Close, London, SW18",http://www.rightmove.co.uk/estate-agents/agent/Townends/Putney-5873.html,3 bedroom terraced house for sale,83146019,2,700000.0,2019-07-13 07:49:55.797780,http://www.rightmove.co.uk/property-for-sale/property-83146019.html,3,51.458883,-0.199439,Freehold,49.0,69.0,33.0,5,3,-5.0,-4.0,-18.666666666666664,3.0,-16.666666666666664
"Long Lane, East Finchley, N2",http://www.rightmove.co.uk/estate-agents/agent/Jeremy-Leaf-and-Co/East-Finchley-16280.html,3 bedroom end of terrace house for sale,68312416,2,700000.0,2019-07-13 07:49:55.797780,http://www.rightmove.co.uk/property-for-sale/property-68312416.html,3,51.594688,-0.175879,Freehold,41.0,59.0,73.0,5,3,-5.0,2.0,-5.333333333333333,-14.0,-14.333333333333332
"Park Grove Road, Leytonstone, London",http://www.rightmove.co.uk/estate-agents/agent/Outlook/Leyton-56158.html,3 bedroom terraced house for sale,72640459,2,700000.0,2019-07-13 07:49:55.797780,http://www.rightmove.co.uk/property-for-sale/property-72640459.html,3,51.56208400000001,0.005803,-,23.0,39.0,52.0,5,0,-5.0,10.0,10.0,-3.5,16.5
"Delaware Road, Maida Vale",http://www.rightmove.co.uk/estate-agents/agent/Dexters/Maida-Vale-39741.html,2 bedroom flat for sale,71458540,2,699999.0,2019-07-13 07:49:55.797780,http://www.rightmove.co.uk/property-for-sale/property-71458540.html,2,51.526332000000004,-0.190494,-,44.0,67.0,53.0,0,0,-4.9999,0.5,-16.0,-4.0,-24.4999
"Wentworth House, Repton Park Woodford Green IG8",http://www.rightmove.co.uk/estate-agents/agent/Hunt-Property-Services-Ltd/Woodford-Green-86834.html,2 bedroom apartment for sale,72807622,2,699999.0,2019-07-13 07:49:55.797780,http://www.rightmove.co.uk/property-for-sale/property-72807622.html,2,51.603297999999995,0.067662,-,31.0,48.0,59.0,0,0,-4.9999,7.0,4.666666666666667,-7.0,-0.33323333333333327
"Parkfield Road, London, NW10",http://www.rightmove.co.uk/estate-agents/agent/Winkworth/Kensal-Rise-and-QP-57096.html,2 bedroom semi-detached house for sale,83161850,2,699999.0,2019-07-13 07:49:55.797780,http://www.rightmove.co.uk/property-for-sale/property-83161850.html,2,51.545668,-0.23321,Freehold,54.0,71.0,63.0,0,3,-4.9999,-9.0,-21.333333333333332,-9.0,-41.33323333333333
"Artisan Mews, Warfield Road, London",http://www.rightmove.co.uk/estate-agents/agent/Sandfords/Regents-Park-45144.html,3 bedroom mews house for sale,63155589,2,699995.0,2019-07-13 07:49:55.797780,http://www.rightmove.co.uk/property-for-sale/property-63155589.html,3,51.529016,-0.21788200000000002,Leasehold,49.0,72.0,58.0,5,0,-4.9995,-4.0,-22.666666666666664,-6.5,-33.16616666666667
"Shoot Up Hill, Kilburn, London, NW2",http://www.rightmove.co.uk/estate-agents/agent/Greene-and-Co/Willesden-Green-597.html,3 bedroom flat for sale,63233187,2,699995.0,2019-07-13 07:49:55.797780,http://www.rightmove.co.uk/property-for-sale/property-63233187.html,3,51.551936,-0.20905100000000001,Leasehold,52.0,70.0,62.0,5,0,-4.9995,-7.0,-20.0,-8.5,-35.4995
"Shepherds Hill, Highgate",http://www.rightmove.co.uk/estate-agents/agent/Kinleigh-Folkard-and-Hayward---Sales/Highgate-55483.html,3 bedroom flat for sale,72698719,2,699995.0,2019-07-13 07:49:55.797780,http://www.rightmove.co.uk/property-for-sale/property-72698719.html,3,51.579791,-0.13361199999999998,Leasehold,44.0,61.0,69.0,5,0,-4.9995,0.5,-8.0,-12.0,-19.4995
"Winchmore Hill, N21",http://www.rightmove.co.uk/estate-agents/agent/Mortemore-Mackay/London-29709.html,3 bedroom terraced house for sale,82878293,2,699995.0,2019-07-13 07:49:55.797780,http://www.rightmove.co.uk/property-for-sale/property-82878293.html,3,51.62957,-0.086489,-,32.0,51.0,65.0,5,0,-4.9995,6.5,2.666666666666667,-10.0,-0.8328333333333333
"Hyde Park Avenue, Winchmore Hill",http://www.rightmove.co.uk/estate-agents/agent/Haydens-Town-and-Country/Hertfordshire-10330.html,3 bedroom terraced house for sale,63053268,2,699995.0,2019-07-13 07:49:55.797780,http://www.rightmove.co.uk/property-for-sale/property-63053268.html,3,51.629699,-0.086242,-,33.0,51.0,65.0,5,0,-4.9995,6.0,2.666666666666667,-10.0,-1.3328333333333333
"Winchmore Hill, N21",http://www.rightmove.co.uk/estate-agents/agent/Mortemore-Mackay/London-29709.html,2 bedroom cottage for sale,83040155,2,699995.0,2019-07-13 07:49:55.797780,http://www.rightmove.co.uk/property-for-sale/property-83040155.html,2,51.636376,-0.101377,-,35.0,54.0,67.0,0,0,-4.9995,5.0,0.6666666666666679,-11.0,-10.332833333333333
"Lavenham Road, London",http://www.rightmove.co.uk/estate-agents/agent/Loney-Miller-Limited/London-187115.html,2 bedroom flat for sale,72206539,2,699950.0,2019-07-13 07:49:55.797780,http://www.rightmove.co.uk/property-for-sale/property-72206539.html,2,51.442679999999996,-0.200177,-,53.0,72.0,32.0,0,0,-4.995,-8.0,-22.666666666666664,3.25,-32.41166666666666
"Milles Square, Brixton",http://www.rightmove.co.uk/estate-agents/agent/Kinleigh-Folkard-and-Hayward---Sales/Clapham-55423.html,2 bedroom flat for sale,72248485,2,699950.0,2019-07-13 07:49:55.797780,http://www.rightmove.co.uk/property-for-sale/property-72248485.html,2,51.462431,-0.11062000000000001,Leasehold,34.0,53.0,20.0,0,0,-4.995,5.5,1.333333333333334,5.0,6.838333333333334
"Lordship Lane, East Dulwich, London, SE22",http://www.rightmove.co.uk/estate-agents/agent/Winkworth/Dulwich-47825.html,3 bedroom apartment for sale,62202648,2,699950.0,2019-07-13 07:49:55.797780,http://www.rightmove.co.uk/property-for-sale/property-62202648.html,3,51.45085,-0.076456,Leasehold,32.0,45.0,13.0,5,0,-4.995,6.5,6.666666666666667,5.0,18.171666666666667
"Sternhold Avenue, Balham",http://www.rightmove.co.uk/estate-agents/agent/Jacksons-Estate-Agents/Balham-65785.html,3 bedroom flat for sale,83164157,2,699950.0,2019-07-13 07:49:55.797780,http://www.rightmove.co.uk/property-for-sale/property-83164157.html,3,51.440194,-0.133719,-,44.0,55.0,16.0,5,0,-4.995,0.5,0.0,5.0,5.505
Frognal Hampstead Village NW3,http://www.rightmove.co.uk/estate-agents/agent/Heathgate/London-51753.html,2 bedroom flat for sale,83113541,2,699950.0,2019-07-13 07:49:55.797780,http://www.rightmove.co.uk/property-for-sale/property-83113541.html,2,51.557219,-0.182482,-,47.0,69.0,60.0,0,0,-4.995,-2.0,-18.666666666666664,-7.5,-33.16166666666666
"Stella Road, London, SW17",http://www.rightmove.co.uk/estate-agents/agent/Marsh-and-Parsons/Tooting-61662.html,2 bedroom end of terrace house for sale,71259934,2,699950.0,2019-07-13 07:49:55.797780,http://www.rightmove.co.uk/property-for-sale/property-71259934.html,2,51.422562,-0.16125499999999998,Freehold,53.0,65.0,22.0,0,3,-4.995,-8.0,-13.333333333333332,5.0,-18.328333333333333
"Tyrrell Road, East Dulwich, SE22",http://www.rightmove.co.uk/estate-agents/agent/Mundays/London-143609.html,2 bedroom flat for sale,82679333,2,699950.0,2019-07-13 07:49:55.797780,http://www.rightmove.co.uk/property-for-sale/property-82679333.html,2,51.458703,-0.069461,Leasehold,29.0,43.0,16.0,0,0,-4.995,8.0,8.0,5.0,16.005
"High Road, Chigwell, IG7",http://www.rightmove.co.uk/estate-agents/agent/Lawlors-Property-Services-Ltd/Chigwell-Sales-31340.html,3 bedroom terraced house for sale,72701158,3,625000.0,2019-07-13 07:49:56.122224,http://www.rightmove.co.uk/property-for-sale/property-72701158.html,3,51.612801,0.065338,-,29.0,46.0,58.0,5,0,0.625,8.0,6.0,-6.5,13.125
"St Cuthberts Road, London, NW2",http://www.rightmove.co.uk/estate-agents/agent/Fraser-and-Co/Paddington-20990.html,2 bedroom maisonette for sale,72846814,3,699950.0,2019-07-13 07:49:56.122224,http://www.rightmove.co.uk/property-for-sale/property-72846814.html,2,51.548986,-0.20525900000000002,Leasehold,51.0,72.0,61.0,0,0,-4.995,-6.0,-22.666666666666664,-8.0,-41.66166666666666
"Kings Wharf, 301 Kingsland Road, Hackney, E8",http://www.rightmove.co.uk/estate-agents/agent/Currell/Hackney---Sales-12602.html,2 bedroom apartment for sale,82987595,3,699950.0,2019-07-13 07:49:56.122224,http://www.rightmove.co.uk/property-for-sale/property-82987595.html,2,51.537572,-0.077378,Leasehold,22.0,42.0,52.0,0,0,-4.995,10.0,8.666666666666666,-3.5,10.171666666666667
"Lillie Road, Fulham",http://www.rightmove.co.uk/estate-agents/agent/Dexters/Fulham-84794.html,2 bedroom flat for sale,63415050,3,699950.0,2019-07-13 07:49:56.122224,http://www.rightmove.co.uk/property-for-sale/property-63415050.html,2,51.48552100000001,-0.202152,-,45.0,70.0,39.0,0,0,-4.995,0.0,-20.0,1.5,-23.495
"Salmon Street, LONDON",http://www.rightmove.co.uk/estate-agents/agent/Bryan-Maher-and-Co/Wembley-48194.html,3 bedroom semi-detached house for sale,56943048,3,699950.0,2019-07-13 07:49:56.122224,http://www.rightmove.co.uk/property-for-sale/property-56943048.html,3,51.575384,-0.268271,Freehold,53.0,71.0,70.0,5,3,-4.995,-8.0,-21.333333333333332,-12.5,-38.82833333333333
"St. Johns Court, Finchley Road, London",http://www.rightmove.co.uk/estate-agents/agent/Sandfords/Regents-Park-45144.html,2 bedroom flat for sale,61089303,3,699950.0,2019-07-13 07:49:56.122224,http://www.rightmove.co.uk/property-for-sale/property-61089303.html,2,51.546191,-0.179654,Leasehold,44.0,70.0,58.0,0,0,-4.995,0.5,-20.0,-6.5,-30.995
"Drive Mansions, Fulham Road, London, SW6",http://www.rightmove.co.uk/estate-agents/agent/Winkworth/Fulham-45899.html,2 bedroom apartment for sale,83161838,3,699950.0,2019-07-13 07:49:56.122224,http://www.rightmove.co.uk/property-for-sale/property-83161838.html,2,51.472208,-0.209535,Leasehold,49.0,74.0,37.0,0,0,-4.995,-4.0,-25.333333333333332,2.0,-32.32833333333333
"Marlborough Crescent, London, W4",http://www.rightmove.co.uk/estate-agents/agent/Whitman-and-Co/Chiswick-67487.html,2 bedroom flat for sale,83080751,3,699950.0,2019-07-13 07:49:56.122224,http://www.rightmove.co.uk/property-for-sale/property-83080751.html,2,51.497867,-0.25843499999999997,-,53.0,82.0,52.0,0,0,-4.995,-8.0,-36.0,-3.5,-52.495000000000005
"Northfield Avenue, Ealing, London",http://www.rightmove.co.uk/estate-agents/agent/Grimshaw-and-Co/London-21578.html,3 bedroom house for sale,78681542,3,699950.0,2019-07-13 07:49:56.122224,http://www.rightmove.co.uk/property-for-sale/property-78681542.html,3,51.498275,-0.31349,-,56.0,85.0,56.0,5,0,-4.995,-11.0,-40.0,-5.5,-56.495000000000005
"Tanner Street, Tanner Street",http://www.rightmove.co.uk/estate-agents/agent/Dexters/London-Bridge-40512.html,2 bedroom flat for sale,72864739,3,699950.0,2019-07-13 07:49:56.122224,http://www.rightmove.co.uk/property-for-sale/property-72864739.html,2,51.499856,-0.07719,-,17.0,41.0,34.0,0,0,-4.995,10.0,9.333333333333334,2.75,17.088333333333335
"Oakington Road, London",http://www.rightmove.co.uk/estate-agents/agent/YOPA/London-204362.html,2 bedroom flat for sale,63166032,3,699950.0,2019-07-13 07:49:56.122224,http://www.rightmove.co.uk/property-for-sale/property-63166032.html,2,51.524978000000004,-0.19481500000000002,-,44.0,68.0,53.0,0,0,-4.995,0.5,-17.333333333333332,-4.0,-25.828333333333333
"Melrose Avenue, London, NW2 ",http://www.rightmove.co.uk/estate-agents/agent/Camerons-Stiff-and-Co/Willesden-Green-London-Sales-13658.html,2 bedroom apartment for sale,62618064,3,699950.0,2019-07-13 07:49:56.122224,http://www.rightmove.co.uk/property-for-sale/property-62618064.html,2,51.553222999999996,-0.22444699999999998,-,54.0,72.0,65.0,0,0,-4.995,-9.0,-22.666666666666664,-10.0,-46.66166666666666
"84 Gordon Road, Peckham,
london, 
SE15 3RG",http://www.rightmove.co.uk/developer/branch/Vanquish-Iconic/Crib-Apartments-Peckham-206627.html,2 bedroom duplex for sale,83052353,3,699000.0,2019-07-13 07:49:56.122224,http://www.rightmove.co.uk/property-for-sale/property-83052353.html,2,51.468086,-0.060426,Leasehold,25.0,39.0,20.0,0,0,-4.9,10.0,10.0,5.0,20.1
"84 Gordon Road, Peckham,
london, 
SE15 3RG",http://www.rightmove.co.uk/developer/branch/Vanquish-Iconic/Crib-Apartments-Peckham-206627.html,2 bedroom apartment for sale,83052608,3,699000.0,2019-07-13 07:49:56.122224,http://www.rightmove.co.uk/property-for-sale/property-83052608.html,2,51.468086,-0.060426,Leasehold,25.0,39.0,20.0,0,0,-4.9,10.0,10.0,5.0,20.1
"Sutherland Road, London, London, W4 2QR",http://www.rightmove.co.uk/estate-agents/agent/Pattinson-Estate-Agents/Auction-74660.html,2 bedroom terraced house for sale,80090570,3,699000.0,2019-07-13 07:49:56.122224,http://www.rightmove.co.uk/property-for-sale/property-80090570.html,2,51.48717,-0.25705,Freehold,49.0,77.0,48.0,0,3,-4.9,-4.0,-29.333333333333332,-1.5,-36.733333333333334
"84 Gordon Road, Peckham,
london, 
SE15 3RG",http://www.rightmove.co.uk/developer/branch/Vanquish-Iconic/Crib-Apartments-Peckham-206627.html,2 bedroom apartment for sale,83051834,3,699000.0,2019-07-13 07:49:56.122224,http://www.rightmove.co.uk/property-for-sale/property-83051834.html,2,51.468086,-0.060426,Leasehold,25.0,39.0,20.0,0,0,-4.9,10.0,10.0,5.0,20.1
"Claremont Close, Islington, London, N1",http://www.rightmove.co.uk/estate-agents/agent/Foxtons/Islington-15954.html,2 bedroom flat for sale,63595836,3,699000.0,2019-07-13 07:49:56.122224,http://www.rightmove.co.uk/property-for-sale/property-63595836.html,2,51.531123,-0.10878299999999999,Leasehold,28.0,53.0,50.0,0,0,-4.9,8.5,1.333333333333334,-2.5,2.4333333333333336
"84 Gordon Road, Peckham,
london, 
SE15 3RG",http://www.rightmove.co.uk/developer/branch/Vanquish-Iconic/Crib-Apartments-Peckham-206627.html,2 bedroom apartment for sale,83052647,3,699000.0,2019-07-13 07:49:56.122224,http://www.rightmove.co.uk/property-for-sale/property-83052647.html,2,51.468086,-0.060426,Leasehold,25.0,39.0,20.0,0,0,-4.9,10.0,10.0,5.0,20.1
"Sutherland Road, Chiswick",http://www.rightmove.co.uk/estate-agents/agent/Thorgills/Brentford-142937.html,2 bedroom house for sale,81968909,3,699000.0,2019-07-13 07:49:56.122224,http://www.rightmove.co.uk/property-for-sale/property-81968909.html,2,,,-,,,,0,0,-4.9,10.0,10.0,5.0,20.1
"Holland Road, London, W14",http://www.rightmove.co.uk/estate-agents/agent/Hamptons-International-Sales/Kensington-37922.html,2 bedroom flat for sale,74864297,3,695000.0,2019-07-13 07:49:56.122224,http://www.rightmove.co.uk/property-for-sale/property-74864297.html,2,51.498446,-0.20800900000000005,Leasehold,45.0,73.0,44.0,0,0,-4.5,0.0,-24.0,0.25,-28.25
"High Road Leytonstone, London, E11",http://www.rightmove.co.uk/estate-agents/agent/Countrywide-Commercial/Essex-60552.html,2 bedroom flat for sale,83226476,3,695000.0,2019-07-13 07:49:56.122224,http://www.rightmove.co.uk/property-for-sale/property-83226476.html,2,51.57015300000001,0.014191,Leasehold,20.0,38.0,48.0,0,0,-4.5,10.0,10.0,-1.5,14.0
"Stapleton Road, London, SW17",http://www.rightmove.co.uk/estate-agents/agent/Savills/Clapham-48916.html,2 bedroom apartment for sale,83214347,3,695000.0,2019-07-13 07:49:56.122224,http://www.rightmove.co.uk/property-for-sale/property-83214347.html,2,51.43415,-0.15699200000000002,Share of Freehold,50.0,61.0,20.0,0,3,-4.5,-5.0,-8.0,5.0,-9.5
"Raymond Road, Upton Park",http://www.rightmove.co.uk/estate-agents/agent/haart/Plaistow-11799.html,3 bedroom terraced house for sale,63591357,4,550000.0,2019-07-13 07:49:56.535163,http://www.rightmove.co.uk/property-for-sale/property-63591357.html,3,51.536547999999996,0.033471,Freehold,18.0,38.0,50.0,5,3,2.5,10.0,10.0,-2.5,28.0
"Balfron Tower, 7 St Leonards Road, London, E14",http://www.rightmove.co.uk/estate-agents/agent/Cushman-and-Wakefield/London-51570.html,3 bedroom flat for sale,72649039,4,695000.0,2019-07-13 07:49:56.535163,http://www.rightmove.co.uk/property-for-sale/property-72649039.html,3,51.513579,-0.008887,-,10.0,29.0,41.0,5,0,-4.5,10.0,10.0,1.0,21.5
"Hamilton Road, Ealing",http://www.rightmove.co.uk/estate-agents/agent/Dexters/Ealing-84791.html,2 bedroom flat for sale,72780481,4,695000.0,2019-07-13 07:49:56.535163,http://www.rightmove.co.uk/property-for-sale/property-72780481.html,2,51.514371999999995,-0.294256,-,56.0,75.0,57.0,0,0,-4.5,-11.0,-26.666666666666664,-6.0,-48.166666666666664
"Brunswick Centre, Bloomsbury",http://www.rightmove.co.uk/estate-agents/agent/Dexters/Bloomsbury-32391.html,2 bedroom flat for sale,72672784,4,695000.0,2019-07-13 07:49:56.535163,http://www.rightmove.co.uk/property-for-sale/property-72672784.html,2,51.52486,-0.124105,-,28.0,57.0,47.0,0,0,-4.5,8.5,-2.6666666666666665,-1.0,0.3333333333333335
"Academy Apartments, 236 Dalston Lane, London, E8",http://www.rightmove.co.uk/estate-agents/agent/Stirling-Ackroyd/Hackney-73037.html,2 bedroom flat for sale,63644598,4,695000.0,2019-07-13 07:49:56.535163,http://www.rightmove.co.uk/property-for-sale/property-63644598.html,2,51.54925,-0.06032000000000001,Leasehold,22.0,39.0,51.0,0,0,-4.5,10.0,10.0,-3.0,12.5
"Putney Plaza, Millennium House, Putney SW15",http://www.rightmove.co.uk/estate-agents/agent/Chase-Evans/Greenwich-143039.html,2 bedroom apartment for sale,81226982,4,695000.0,2019-07-13 07:49:56.535163,http://www.rightmove.co.uk/property-for-sale/property-81226982.html,2,51.459855,-0.21005300000000002,Leasehold,51.0,71.0,35.0,0,0,-4.5,-6.0,-21.333333333333332,2.5,-29.333333333333332
"Fulham Road, Fulham",http://www.rightmove.co.uk/estate-agents/agent/Kinleigh-Folkard-and-Hayward---Sales/Fulham-and-Chelsea-55468.html,2 bedroom flat for sale,63509355,4,695000.0,2019-07-13 07:49:56.535163,http://www.rightmove.co.uk/property-for-sale/property-63509355.html,2,51.479553,-0.198625,Share of Freehold,48.0,71.0,37.0,0,3,-4.5,-3.0,-21.333333333333332,2.0,-23.833333333333332
"Greswell Street, Bishops Park, Fulham, London, SW6",http://www.rightmove.co.uk/estate-agents/agent/Chestertons-Estate-Agents/Fulham-Parsons-Green-48856.html,2 bedroom flat for sale,83157308,4,695000.0,2019-07-13 07:49:56.535163,http://www.rightmove.co.uk/property-for-sale/property-83157308.html,2,51.475967,-0.219978,Share of Freehold,54.0,77.0,41.0,0,3,-4.5,-9.0,-29.333333333333332,1.0,-38.83333333333333
"Royal Docks West, Western Gateway, London, E16",http://www.rightmove.co.uk/estate-agents/agent/NDLDN/London-197795.html,3 bedroom apartment for sale,72879748,4,695000.0,2019-07-13 07:49:56.535163,http://www.rightmove.co.uk/property-for-sale/property-72879748.html,3,51.507909999999995,0.029787,Leasehold,10.0,32.0,43.0,5,0,-4.5,10.0,10.0,0.5,21.0
"Royal Docks West, 12 Western Gateway, Canning Town, E16",http://www.rightmove.co.uk/estate-agents/agent/Strawberry-Star/E16-159227.html,3 bedroom apartment for sale,83250614,4,695000.0,2019-07-13 07:49:56.535163,http://www.rightmove.co.uk/property-for-sale/property-83250614.html,3,51.508483,0.022199,Leasehold,9.0,31.0,42.0,5,0,-4.5,10.0,10.0,0.75,21.25
"St. Stephens Avenue, London, W12",http://www.rightmove.co.uk/estate-agents/agent/Finlay-Brewer/London-W12-93052.html,2 bedroom flat for sale,63446382,4,695000.0,2019-07-13 07:49:56.535163,http://www.rightmove.co.uk/property-for-sale/property-63446382.html,2,51.502871,-0.2318510000000001,Leasehold,51.0,79.0,51.0,0,0,-4.5,-6.0,-32.0,-3.0,-45.5
"LUPUS STREET, SW1V",http://www.rightmove.co.uk/estate-agents/agent/Winkworth/Pimlico-85457.html,2 bedroom apartment for sale,63579588,4,695000.0,2019-07-13 07:49:56.535163,http://www.rightmove.co.uk/property-for-sale/property-63579588.html,2,51.488403999999996,-0.13777899999999998,-,34.0,57.0,33.0,0,0,-4.5,5.5,-2.6666666666666665,3.0,1.3333333333333335
"Brunswick House, New Goulston Street, Spitalfields, London, E1",http://www.rightmove.co.uk/estate-agents/agent/Foxtons/Shoreditch-16050.html,3 bedroom flat for sale,63644046,4,695000.0,2019-07-13 07:49:56.535163,http://www.rightmove.co.uk/property-for-sale/property-63644046.html,3,51.515821,-0.07518899999999999,Leasehold,14.0,45.0,43.0,5,0,-4.5,10.0,6.666666666666667,0.5,17.666666666666668
"Claverton Street, London, SW1V",http://www.rightmove.co.uk/estate-agents/agent/Jackson-Stops/Pimlico-77695.html,2 bedroom flat for sale,63612015,4,695000.0,2019-07-13 07:49:56.535163,http://www.rightmove.co.uk/property-for-sale/property-63612015.html,2,51.487582,-0.13823,Leasehold,32.0,57.0,33.0,0,0,-4.5,6.5,-2.6666666666666665,3.0,2.3333333333333335
"Crondall Street, Shoreditch, N1 ",http://www.rightmove.co.uk/estate-agents/agent/Hunters/Shoreditch-47640.html,2 bedroom apartment for sale,63382824,4,695000.0,2019-07-13 07:49:56.535163,http://www.rightmove.co.uk/property-for-sale/property-63382824.html,2,51.530851,-0.082125,-,21.0,43.0,49.0,0,0,-4.5,10.0,8.0,-2.0,11.5
"Cape Apartments, 130 Rotherhithe New Road, London, SE16",http://www.rightmove.co.uk/estate-agents/agent/Knight-Frank/Tower-Bridge-141953.html,3 bedroom penthouse for sale,63551658,4,695000.0,2019-07-13 07:49:56.535163,http://www.rightmove.co.uk/property-for-sale/property-63551658.html,3,51.4911,-0.053227,Leasehold,14.0,35.0,29.0,5,0,-4.5,10.0,10.0,4.0,24.5
"St. Alphonsus Road, London, SW4",http://www.rightmove.co.uk/estate-agents/agent/Marsh-and-Parsons/Clapham-22233.html,3 bedroom apartment for sale,72110731,4,695000.0,2019-07-13 07:49:56.535163,http://www.rightmove.co.uk/property-for-sale/property-72110731.html,3,51.460434,-0.137743,Share of Freehold,39.0,59.0,23.0,5,3,-4.5,3.0,-5.333333333333333,5.0,6.166666666666667
"84 Shoot Up Hill, Kilburn/west Hampstead, NW2",http://www.rightmove.co.uk/estate-agents/agent/99homecouk/Covering-Nationwide-176603.html,3 bedroom flat for sale,72291814,4,694999.0,2019-07-13 07:49:56.535163,http://www.rightmove.co.uk/property-for-sale/property-72291814.html,3,51.55174,-0.2089010000000001,Leasehold,52.0,70.0,62.0,5,0,-4.4999,-7.0,-20.0,-8.5,-34.9999
"Delaware Mansions, Maida Vale, W9",http://www.rightmove.co.uk/estate-agents/agent/Compton-Reeback/London-74510.html,2 bedroom apartment for sale,82700630,4,694950.0,2019-07-13 07:49:56.535163,http://www.rightmove.co.uk/property-for-sale/property-82700630.html,2,51.526332000000004,-0.190494,-,44.0,67.0,53.0,0,0,-4.495,0.5,-16.0,-4.0,-23.995
"Bromyard Avenue, Acton",http://www.rightmove.co.uk/estate-agents/agent/Dexters/Acton-84785.html,2 bedroom flat for sale,72652441,4,690000.0,2019-07-13 07:49:56.535163,http://www.rightmove.co.uk/property-for-sale/property-72652441.html,2,51.5078,-0.250722,-,50.0,76.0,54.0,0,0,-4.0,-5.0,-28.0,-4.5,-41.5
"Residence Tower, Woodberry Grove, London, N4",http://www.rightmove.co.uk/estate-agents/agent/JLL/North-London-94529.html,3 bedroom apartment for sale,72651331,4,690000.0,2019-07-13 07:49:56.535163,http://www.rightmove.co.uk/property-for-sale/property-72651331.html,3,51.56981,-0.096662,Leasehold,33.0,50.0,61.0,5,0,-4.0,6.0,3.333333333333334,-8.0,2.333333333333334
"Priory Road, London, NW6 ",http://www.rightmove.co.uk/estate-agents/agent/Hunters/West-Hampstead-593.html,2 bedroom flat for sale,72355930,4,690000.0,2019-07-13 07:49:56.535163,http://www.rightmove.co.uk/property-for-sale/property-72355930.html,2,51.540663,-0.190301,-,46.0,72.0,55.0,0,0,-4.0,-1.0,-22.666666666666664,-5.0,-32.666666666666664
"Maine Tower, Harbour Central, Canary Wharf, E14",http://www.rightmove.co.uk/estate-agents/agent/Ernest-Brooks-International/London-162914.html,2 bedroom apartment for sale,63617544,5,690000.0,2019-07-13 07:49:56.905777,http://www.rightmove.co.uk/property-for-sale/property-63617544.html,2,51.502526,-0.017603999999999998,Leasehold,1.0,31.0,45.0,0,0,-4.0,10.0,10.0,0.0,16.0
"John Islip Street, London",http://www.rightmove.co.uk/estate-agents/agent/Waterview/Waterview-Shad-Thames-198539.html,2 bedroom flat for sale,63223203,5,685000.0,2019-07-13 07:49:56.905777,http://www.rightmove.co.uk/property-for-sale/property-63223203.html,2,51.492906,-0.12709700000000002,-,29.0,54.0,33.0,0,0,-3.5,8.0,0.6666666666666679,3.0,8.166666666666668
"Halcyon Wharf, 5 Wapping High Street, London, E1W",http://www.rightmove.co.uk/estate-agents/agent/Cluttons/Wapping---Sales-56677.html,2 bedroom apartment for sale,72830647,5,685000.0,2019-07-13 07:49:56.905777,http://www.rightmove.co.uk/property-for-sale/property-72830647.html,2,51.504785,-0.067139,Leasehold,12.0,38.0,42.0,0,0,-3.5,10.0,10.0,0.75,17.25
"Squires Lane, Finchley, N3",http://www.rightmove.co.uk/estate-agents/agent/Ivy-Gate/London---Sales-and-Lettings-101990.html,3 bedroom terraced house for sale,82958234,5,685000.0,2019-07-13 07:49:56.905777,http://www.rightmove.co.uk/property-for-sale/property-82958234.html,3,51.60194,-0.177786,-,39.0,58.0,74.0,5,0,-3.5,3.0,-4.0,-14.5,-14.0
Franklin Place London SE13,http://www.rightmove.co.uk/estate-agents/agent/John-Payne/Greenwich-48285.html,3 bedroom semi-detached house for sale,63525291,5,685000.0,2019-07-13 07:49:56.905777,http://www.rightmove.co.uk/property-for-sale/property-63525291.html,3,51.471964,-0.018072,Freehold,25.0,28.0,28.0,5,3,-3.5,10.0,10.0,4.25,28.75
"15 Indescon Square, Canary Wharf, London, E14",http://www.rightmove.co.uk/estate-agents/agent/Life-Residential/Canary-Wharf-Office---Sales-52521.html,3 bedroom apartment for sale,68293564,5,685000.0,2019-07-13 07:49:56.905777,http://www.rightmove.co.uk/property-for-sale/property-68293564.html,3,51.498777000000004,-0.02113,Leasehold,5.0,32.0,45.0,5,0,-3.5,10.0,10.0,0.0,21.5
"Free Trade Wharf, Wapping, E1W",http://www.rightmove.co.uk/estate-agents/agent/DAA-Residential/London---Sales-73072.html,3 bedroom flat for sale,73384214,5,685000.0,2019-07-13 07:49:56.905777,http://www.rightmove.co.uk/property-for-sale/property-73384214.html,3,51.509846,-0.046258999999999995,-,6.0,32.0,39.0,5,0,-3.5,10.0,10.0,1.5,23.0
"Ethel Road, Royal Docks, London, E16 3AU",http://www.rightmove.co.uk/estate-agents/agent/Grand-Estates/London-176480.html,2 bedroom flat for sale,63552309,5,685000.0,2019-07-13 07:49:56.905777,http://www.rightmove.co.uk/property-for-sale/property-63552309.html,2,51.510609,0.027906,-,10.0,34.0,43.0,0,0,-3.5,10.0,10.0,0.5,17.0
"Merrivale, Southgate, London, ., N14",http://www.rightmove.co.uk/estate-agents/agent/Bairstow-Eves/Southgate-581.html,2 bedroom detached house for sale,69911428,5,685000.0,2019-07-13 07:49:56.905777,http://www.rightmove.co.uk/property-for-sale/property-69911428.html,2,51.642666999999996,-0.129153,Freehold,37.0,56.0,70.0,0,3,-3.5,4.0,-1.3333333333333333,-12.5,-10.333333333333332
"Lizban Street, Blackheath",http://www.rightmove.co.uk/estate-agents/agent/Kinleigh-Folkard-and-Hayward---Sales/Blackheath-55402.html,3 bedroom end of terrace house for sale,62130696,5,685000.0,2019-07-13 07:49:56.905777,http://www.rightmove.co.uk/property-for-sale/property-62130696.html,3,51.477421,0.025656,Freehold,17.0,22.0,33.0,5,3,-3.5,10.0,10.0,3.0,27.5
"John Islip Street, Westminster",http://www.rightmove.co.uk/estate-agents/agent/Dexters/Westminster-151016.html,2 bedroom flat for sale,82329806,5,685000.0,2019-07-13 07:49:56.905777,http://www.rightmove.co.uk/property-for-sale/property-82329806.html,2,51.492906,-0.12709700000000002,-,29.0,54.0,33.0,0,0,-3.5,8.0,0.6666666666666679,3.0,8.166666666666668
"Hornsey Lane, Highgate, N6",http://www.rightmove.co.uk/estate-agents/agent/Castles-Estate-Agents/Crouch-End-24410.html,2 bedroom flat for sale,61484559,5,685000.0,2019-07-13 07:49:56.905777,http://www.rightmove.co.uk/property-for-sale/property-61484559.html,2,51.57206,-0.135603,-,43.0,61.0,67.0,0,0,-3.5,1.0,-8.0,-11.0,-21.5
"Ranelagh Mansions - New Kings Road, Fulham, SW6",http://www.rightmove.co.uk/estate-agents/agent/Purplebricks/covering-London-151079.html,2 bedroom flat for sale,80295374,5,685000.0,2019-07-13 07:49:56.905777,http://www.rightmove.co.uk/property-for-sale/property-80295374.html,2,51.471746,-0.204455,Leasehold,46.0,71.0,35.0,0,0,-3.5,-1.0,-21.333333333333332,2.5,-23.333333333333332
"Colenso Drive, Mill Hill",http://www.rightmove.co.uk/estate-agents/agent/Godfrey-And-Barr/Mill-Hill-36729.html,3 bedroom semi-detached house for sale,63415536,5,680000.0,2019-07-13 07:49:56.905777,http://www.rightmove.co.uk/property-for-sale/property-63415536.html,3,51.605907,-0.2353780000000001,Freehold,48.0,68.0,74.0,5,3,-3.0,-3.0,-17.333333333333332,-14.5,-29.833333333333332
"Maine Tower, Harbour Central, Canary Wharf, London, E14",http://www.rightmove.co.uk/estate-agents/agent/Kingsley-Hamilton-New-Homes/Canary-Wharf-166994.html,2 bedroom apartment for sale,72574537,5,680000.0,2019-07-13 07:49:56.905777,http://www.rightmove.co.uk/property-for-sale/property-72574537.html,2,51.500375,-0.019716,-,5.0,31.0,44.0,0,0,-3.0,10.0,10.0,0.25,17.25
"Cobalt Place, Battersea, SW11",http://www.rightmove.co.uk/estate-agents/agent/Lauristons/Battersea-39908.html,2 bedroom apartment for sale,72366172,5,680000.0,2019-07-13 07:49:56.905777,http://www.rightmove.co.uk/property-for-sale/property-72366172.html,2,51.47440200000001,-0.17317000000000002,Leasehold,42.0,66.0,30.0,0,0,-3.0,1.5,-14.666666666666666,3.75,-12.416666666666664
"Meadow Drive, Hendon, London, NW4 1SD",http://www.rightmove.co.uk/estate-agents/agent/William-Nelhams-and-Co/London-91493.html,3 bedroom house for sale,81455069,5,680000.0,2019-07-13 07:49:56.905777,http://www.rightmove.co.uk/property-for-sale/property-81455069.html,3,51.596584,-0.22370900000000002,-,46.0,63.0,71.0,5,0,-3.0,-1.0,-10.666666666666666,-13.0,-22.666666666666664
"Arena Tower, Canary Wharf, London, E14",http://www.rightmove.co.uk/estate-agents/agent/Ernest-Brooks-International/London-162914.html,2 bedroom apartment for sale,63618648,5,680000.0,2019-07-13 07:49:56.905777,http://www.rightmove.co.uk/property-for-sale/property-63618648.html,2,51.497128000000004,-0.015035,-,7.0,31.0,43.0,0,0,-3.0,10.0,10.0,0.5,17.5
"Regency Mews, Oval",http://www.rightmove.co.uk/estate-agents/agent/Kinleigh-Folkard-and-Hayward---Sales/Kennington-55498.html,2 bedroom semi-detached house for sale,83173709,5,680000.0,2019-07-13 07:49:56.905777,http://www.rightmove.co.uk/property-for-sale/property-83173709.html,2,51.477043,-0.10224,Freehold,29.0,49.0,24.0,0,3,-3.0,8.0,4.0,5.0,17.0
"Green Lanes, London, N16",http://www.rightmove.co.uk/estate-agents/agent/JLL/North-London-94529.html,2 bedroom apartment for sale,72620404,5,680000.0,2019-07-13 07:49:56.905777,http://www.rightmove.co.uk/property-for-sale/property-72620404.html,2,51.555246999999994,-0.09001100000000001,-,31.0,48.0,58.0,0,0,-3.0,7.0,4.666666666666667,-6.5,2.166666666666668
"Woodberry Grove, North Finchley, London, N12",http://www.rightmove.co.uk/estate-agents/agent/Martyn-Gerrard/North-Finchley-13105.html,3 bedroom semi-detached house for sale,83157020,5,680000.0,2019-07-13 07:49:56.905777,http://www.rightmove.co.uk/property-for-sale/property-83157020.html,3,51.60953,-0.177728,Freehold,41.0,61.0,76.0,5,3,-3.0,2.0,-8.0,-15.5,-16.5
"Melbourne Avenue, London, N13",http://www.rightmove.co.uk/estate-agents/agent/Hamptons-International-Sales/Muswell-Hill-79819.html,3 bedroom terraced house for sale,83117900,5,680000.0,2019-07-13 07:49:56.905777,http://www.rightmove.co.uk/property-for-sale/property-83117900.html,3,51.611201,-0.111858,Freehold,33.0,50.0,65.0,5,3,-3.0,6.0,3.333333333333334,-10.0,4.333333333333334
"Kedleston Walk, Bethnal Green, E2",http://www.rightmove.co.uk/estate-agents/agent/Portico/Leyton-32706.html,3 bedroom ground maisonette for sale,83212832,6,650000.0,2019-07-13 07:49:57.248394,http://www.rightmove.co.uk/property-for-sale/property-83212832.html,3,51.528921000000004,-0.05769700000000001,Leasehold,16.0,39.0,47.0,5,0,0.0,10.0,10.0,-1.0,24.0
"Arundel Grove, Islington, N16",http://www.rightmove.co.uk/estate-agents/agent/99homecouk/Covering-Nationwide-176603.html,3 bedroom terraced house for sale,72669073,6,679000.0,2019-07-13 07:49:57.248394,http://www.rightmove.co.uk/property-for-sale/property-72669073.html,3,51.550534000000006,-0.081442,Freehold,28.0,45.0,56.0,5,3,-2.9,8.5,6.666666666666667,-5.5,14.766666666666666
"Borwick Avenue, Walthamstow, London",http://www.rightmove.co.uk/estate-agents/agent/Central-Estate-Agents/Walthamstow-6323.html,3 bedroom terraced house for sale,63577137,6,675000.0,2019-07-13 07:49:57.248394,http://www.rightmove.co.uk/property-for-sale/property-63577137.html,3,51.588974,-0.028174,Freehold,28.0,48.0,59.0,5,3,-2.5,8.5,4.666666666666667,-7.0,11.666666666666668
"Twickenham Road, Leytonstone, London, E11",http://www.rightmove.co.uk/estate-agents/agent/Trading-Places/Leytonstone-9059.html,3 bedroom terraced house for sale,72747442,6,675000.0,2019-07-13 07:49:57.248394,http://www.rightmove.co.uk/property-for-sale/property-72747442.html,3,51.5647,-0.000252,-,22.0,39.0,51.0,5,0,-2.5,10.0,10.0,-3.0,19.5
"Merlin Court, 26 Handley Drive, London, SE3",http://www.rightmove.co.uk/estate-agents/agent/Winkworth/Blackheath-14614.html,3 bedroom apartment for sale,72885838,6,675000.0,2019-07-13 07:49:57.248394,http://www.rightmove.co.uk/property-for-sale/property-72885838.html,3,51.460607,0.023587,Leasehold,19.0,24.0,30.0,5,0,-2.5,10.0,10.0,3.75,26.25
"Park Avenue South, Crouch End, London",http://www.rightmove.co.uk/estate-agents/agent/Tatlers/Crouch-End-44861.html,2 bedroom flat for sale,82359554,6,675000.0,2019-07-13 07:49:57.248394,http://www.rightmove.co.uk/property-for-sale/property-82359554.html,2,51.58559,-0.129447,-,42.0,61.0,73.0,0,0,-2.5,1.5,-8.0,-14.0,-23.0
"Harvist Road, London",http://www.rightmove.co.uk/estate-agents/agent/Dexters/Kensal-Rise-50343.html,2 bedroom flat for sale,70214407,6,675000.0,2019-07-13 07:49:57.248394,http://www.rightmove.co.uk/property-for-sale/property-70214407.html,2,51.533103000000004,-0.212146,-,49.0,74.0,57.0,0,0,-2.5,-4.0,-25.333333333333332,-6.0,-37.83333333333333
"East Dulwich Road, East Dulwich",http://www.rightmove.co.uk/estate-agents/agent/Kinleigh-Folkard-and-Hayward---Sales/East-Dulwich-52719.html,3 bedroom flat for sale,79055384,6,675000.0,2019-07-13 07:49:57.248394,http://www.rightmove.co.uk/property-for-sale/property-79055384.html,3,51.461661,-0.074374,Share of Freehold,29.0,43.0,17.0,5,3,-2.5,8.0,8.0,5.0,26.5
Coniston Road N10,http://www.rightmove.co.uk/estate-agents/agent/Prickett-and-Ellis/Muswell-Hill-90137.html,3 bedroom flat for sale,83266589,6,675000.0,2019-07-13 07:49:57.248394,http://www.rightmove.co.uk/property-for-sale/property-83266589.html,3,51.595397,-0.14235799999999998,-,37.0,57.0,69.0,5,0,-2.5,4.0,-2.6666666666666665,-12.0,-8.166666666666666
"Church Hill Road, Walthamstow, London, E17",http://www.rightmove.co.uk/estate-agents/agent/Estates17/Walthamstow-94276.html,3 bedroom detached house for sale,80210873,6,675000.0,2019-07-13 07:49:57.248394,http://www.rightmove.co.uk/property-for-sale/property-80210873.html,3,51.586582,-0.009331,-,26.0,42.0,54.0,5,0,-2.5,9.5,8.666666666666666,-4.5,16.166666666666664
"Fontarabia Road, Battersea, London, SW11",http://www.rightmove.co.uk/estate-agents/agent/James-Pendleton/Battersea-Northcote-Road-45741.html,2 bedroom flat for sale,58224948,6,675000.0,2019-07-13 07:49:57.248394,http://www.rightmove.co.uk/property-for-sale/property-58224948.html,2,51.463460999999995,-0.153805,Share of Freehold,42.0,62.0,24.0,0,3,-2.5,1.5,-9.333333333333332,5.0,-2.333333333333332
"West Tower, Pan Peninsula, Canary Wharf E14",http://www.rightmove.co.uk/estate-agents/agent/Chase-Evans/Pan-Peninsula-76478.html,2 bedroom apartment for sale,72708010,6,675000.0,2019-07-13 07:49:57.248394,http://www.rightmove.co.uk/property-for-sale/property-72708010.html,2,51.500021999999994,-0.018151,Leasehold,7.0,34.0,45.0,0,0,-2.5,10.0,10.0,0.0,17.5
"Church Road,Richmond,TW10",http://www.rightmove.co.uk/estate-agents/agent/Chancellors/Richmond-30479.html,2 bedroom flat for sale,72599230,6,675000.0,2019-07-13 07:49:57.248394,http://www.rightmove.co.uk/property-for-sale/property-72599230.html,2,51.456,-0.29600000000000004,-,59.0,86.0,51.0,0,0,-2.5,-14.0,-41.33333333333333,-3.0,-60.83333333333333
"Loughborough Road, Stockwell",http://www.rightmove.co.uk/estate-agents/agent/Kinleigh-Folkard-and-Hayward---Sales/Kennington-55498.html,2 bedroom flat for sale,63588408,6,675000.0,2019-07-13 07:49:57.248394,http://www.rightmove.co.uk/property-for-sale/property-63588408.html,2,51.470791,-0.110419,Leasehold,32.0,50.0,21.0,0,0,-2.5,6.5,3.333333333333334,5.0,12.333333333333334
"Regal House, Imperial Wharf, Imperial Wharf, London, SW6",http://www.rightmove.co.uk/estate-agents/agent/Foxtons/Fulham-Broadway-15948.html,2 bedroom flat for sale,60272139,6,675000.0,2019-07-13 07:49:57.248394,http://www.rightmove.co.uk/property-for-sale/property-60272139.html,2,51.472389,-0.18268299999999998,Leasehold,45.0,70.0,32.0,0,0,-2.5,0.0,-20.0,3.25,-19.25
"Admiral Walk, Maida Vale",http://www.rightmove.co.uk/estate-agents/agent/Kinleigh-Folkard-and-Hayward---Sales/St-Johns-Wood-55534.html,2 bedroom flat for sale,63638031,6,675000.0,2019-07-13 07:49:57.248394,http://www.rightmove.co.uk/property-for-sale/property-63638031.html,2,51.522942,-0.19576,Leasehold,43.0,67.0,52.0,0,0,-2.5,1.0,-16.0,-3.5,-21.0
"Ivor House, Brixton Centric, SW2",http://www.rightmove.co.uk/estate-agents/agent/JLL/London-Residential-Developments-100183.html,2 bedroom apartment for sale,63471339,6,675000.0,2019-07-13 07:49:57.248394,http://www.rightmove.co.uk/property-for-sale/property-63471339.html,2,51.45367,-0.11946,-,39.0,54.0,19.0,0,0,-2.5,3.0,0.6666666666666679,5.0,6.166666666666668
"Chatsworth Road, Mapesbury",http://www.rightmove.co.uk/estate-agents/agent/Kinleigh-Folkard-and-Hayward---Sales/West-Hampstead-55549.html,2 bedroom flat for sale,83043755,6,675000.0,2019-07-13 07:49:57.248394,http://www.rightmove.co.uk/property-for-sale/property-83043755.html,2,51.546147999999995,-0.207823,Share of Freehold,52.0,73.0,61.0,0,3,-2.5,-7.0,-24.0,-8.0,-38.5
"Tradewinds Court, Asher Way, London, E1W",http://www.rightmove.co.uk/estate-agents/agent/Cluttons/Wapping---Sales-56677.html,2 bedroom apartment for sale,72886816,6,675000.0,2019-07-13 07:49:57.248394,http://www.rightmove.co.uk/property-for-sale/property-72886816.html,2,51.507385,-0.065963,-,14.0,37.0,44.0,0,0,-2.5,10.0,10.0,0.25,17.75
"Bridge Approach, Primrose Hill, London, NW1",http://www.rightmove.co.uk/estate-agents/agent/Foxtons/Camden-64127.html,2 bedroom flat for sale,63551229,6,675000.0,2019-07-13 07:49:57.248394,http://www.rightmove.co.uk/property-for-sale/property-63551229.html,2,51.5432,-0.156301,Share of Freehold,41.0,66.0,57.0,0,3,-2.5,2.0,-14.666666666666666,-6.0,-18.166666666666664
"Cold Harbour, London, E14",http://www.rightmove.co.uk/estate-agents/agent/Atkinson-McLeod/Canary-Wharf---Sales-37625.html,2 bedroom apartment for sale,63494574,6,675000.0,2019-07-13 07:49:57.248394,http://www.rightmove.co.uk/property-for-sale/property-63494574.html,2,51.501813,-0.007855,-,7.0,29.0,42.0,0,0,-2.5,10.0,10.0,0.75,18.25
Lewisham Way SE4,http://www.rightmove.co.uk/estate-agents/agent/Sebastian-Roche-Ltd/London-7189.html,3 bedroom flat for sale,63420813,7,575000.0,2019-07-13 07:49:57.562535,http://www.rightmove.co.uk/property-for-sale/property-63420813.html,3,51.468866999999996,-0.026413,Leasehold,23.0,31.0,21.0,5,0,1.875,10.0,10.0,5.0,31.875
"Rockley Road, Brook Green",http://www.rightmove.co.uk/estate-agents/agent/Kinleigh-Folkard-and-Hayward---Sales/Brook-Green-101813.html,2 bedroom flat for sale,61234650,7,675000.0,2019-07-13 07:49:57.562535,http://www.rightmove.co.uk/property-for-sale/property-61234650.html,2,51.501638,-0.21979899999999997,Share of Freehold,49.0,78.0,49.0,0,3,-2.5,-4.0,-30.666666666666664,-2.0,-36.166666666666664
"Dalyell Road, Brixton",http://www.rightmove.co.uk/estate-agents/agent/Dexters/Clapham-78413.html,3 bedroom flat for sale,71773432,7,675000.0,2019-07-13 07:49:57.562535,http://www.rightmove.co.uk/property-for-sale/property-71773432.html,3,51.46530900000001,-0.11897100000000001,-,35.0,55.0,23.0,5,0,-2.5,5.0,0.0,5.0,12.5
"Beechcroft Gardens, Wembley Park",http://www.rightmove.co.uk/estate-agents/agent/haart/Wembley-11607.html,3 bedroom semi-detached house for sale,63360096,7,675000.0,2019-07-13 07:49:57.562535,http://www.rightmove.co.uk/property-for-sale/property-63360096.html,3,51.562107,-0.288998,Freehold,56.0,74.0,67.0,5,3,-2.5,-11.0,-25.333333333333332,-11.0,-41.83333333333333
"Gaskin Street, Islington, London, N1",http://www.rightmove.co.uk/estate-agents/agent/Savills/Islington-36269.html,2 bedroom apartment for sale,63389802,7,675000.0,2019-07-13 07:49:57.562535,http://www.rightmove.co.uk/property-for-sale/property-63389802.html,2,51.537553,-0.102371,Leasehold,27.0,51.0,52.0,0,0,-2.5,9.0,2.666666666666667,-3.5,5.666666666666668
"Kingswood Road, London, W4",http://www.rightmove.co.uk/estate-agents/agent/Marsh-and-Parsons/Chiswick-189686.html,2 bedroom apartment for sale,72681136,7,675000.0,2019-07-13 07:49:57.562535,http://www.rightmove.co.uk/property-for-sale/property-72681136.html,2,51.498767,-0.269471,Share of Freehold,54.0,83.0,53.0,0,3,-2.5,-9.0,-37.33333333333333,-4.0,-49.83333333333333
"Pell Street, London",http://www.rightmove.co.uk/estate-agents/agent/YOPA/London-204362.html,3 bedroom flat for sale,62892651,7,675000.0,2019-07-13 07:49:57.562535,http://www.rightmove.co.uk/property-for-sale/property-62892651.html,3,51.491359,-0.038755,-,17.0,36.0,30.0,5,0,-2.5,10.0,10.0,3.75,26.25
"Matthias Court, 119 Church Road, Richmond, TW10",http://www.rightmove.co.uk/estate-agents/agent/Chestertons-Estate-Agents/Richmond-148943.html,2 bedroom flat for sale,69172702,7,675000.0,2019-07-13 07:49:57.562535,http://www.rightmove.co.uk/property-for-sale/property-69172702.html,2,51.45685200000001,-0.29644899999999996,Share of Freehold,60.0,87.0,52.0,0,3,-2.5,-15.0,-42.666666666666664,-3.5,-60.666666666666664
"Waldegrave Road, London, N8",http://www.rightmove.co.uk/estate-agents/agent/Property-Inc/Harringay-191252.html,3 bedroom terraced house for sale,79687823,7,675000.0,2019-07-13 07:49:57.562535,http://www.rightmove.co.uk/property-for-sale/property-79687823.html,3,51.59073,-0.105053,Freehold,38.0,57.0,68.0,5,3,-2.5,3.5,-2.6666666666666665,-11.5,-5.166666666666666
Winn Road Lee SE12,http://www.rightmove.co.uk/estate-agents/agent/John-Payne/Lee-34397.html,3 bedroom bungalow for sale,72179491,7,675000.0,2019-07-13 07:49:57.562535,http://www.rightmove.co.uk/property-for-sale/property-72179491.html,3,51.441902,0.025523,Freehold,22.0,25.0,26.0,5,3,-2.5,10.0,10.0,4.75,30.25
"Buckhold Road, Wandsworth, London, SW18",http://www.rightmove.co.uk/estate-agents/agent/Chestertons-Estate-Agents/Wandsworth-145460.html,3 bedroom terraced house for sale,72885676,7,675000.0,2019-07-13 07:49:57.562535,http://www.rightmove.co.uk/property-for-sale/property-72885676.html,3,51.454771,-0.197024,Freehold,49.0,68.0,33.0,5,3,-2.5,-4.0,-17.333333333333332,3.0,-12.833333333333332
"Tollington Park, Stroud Green N4",http://www.rightmove.co.uk/estate-agents/agent/David-Astburys-Ltd/London-176261.html,3 bedroom apartment for sale,69436108,7,675000.0,2019-07-13 07:49:57.562535,http://www.rightmove.co.uk/property-for-sale/property-69436108.html,3,51.566435999999996,-0.11381500000000001,Share of Freehold,38.0,57.0,64.0,5,3,-2.5,3.5,-2.6666666666666665,-9.5,-3.166666666666666
"Fontarabia Road, London, SW11",http://www.rightmove.co.uk/estate-agents/agent/John-Thorogood/London-43346.html,2 bedroom flat for sale,62133378,7,675000.0,2019-07-13 07:49:57.562535,http://www.rightmove.co.uk/property-for-sale/property-62133378.html,2,51.463452000000004,-0.153756,Share of Freehold,42.0,62.0,24.0,0,3,-2.5,1.5,-9.333333333333332,5.0,-2.333333333333332
"Putney Bridge Road, Putney",http://www.rightmove.co.uk/estate-agents/agent/Kinleigh-Folkard-and-Hayward---Sales/Putney-55525.html,2 bedroom flat for sale,71593876,7,675000.0,2019-07-13 07:49:57.562535,http://www.rightmove.co.uk/property-for-sale/property-71593876.html,2,51.459584,-0.19826,Share of Freehold,48.0,70.0,32.0,0,3,-2.5,-3.0,-20.0,3.25,-19.25
"Lancaster Grove, Belsize Park, London, NW3",http://www.rightmove.co.uk/estate-agents/agent/Knight-Frank/Belsize-Park-138794.html,2 bedroom flat for sale,49102374,7,675000.0,2019-07-13 07:49:57.562535,http://www.rightmove.co.uk/property-for-sale/property-49102374.html,2,51.546245,-0.169873,Leasehold,43.0,67.0,57.0,0,0,-2.5,1.0,-16.0,-6.0,-23.5
"Mount Nod Road, Streatham, London, SW16",http://www.rightmove.co.uk/estate-agents/agent/Pedder/West-Norwood-107375.html,3 bedroom apartment for sale,72852061,7,675000.0,2019-07-13 07:49:57.562535,http://www.rightmove.co.uk/property-for-sale/property-72852061.html,3,51.436384000000004,-0.11817000000000001,-,43.0,52.0,14.0,5,0,-2.5,1.0,2.0,5.0,10.5
"Brockham Street, Borough",http://www.rightmove.co.uk/estate-agents/agent/Dexters/London-Bridge-40512.html,2 bedroom flat for sale,72800023,7,675000.0,2019-07-13 07:49:57.562535,http://www.rightmove.co.uk/property-for-sale/property-72800023.html,2,51.497949,-0.094862,-,21.0,47.0,32.0,0,0,-2.5,10.0,5.333333333333334,3.25,16.083333333333336
"Fairholme Road, West Kensington",http://www.rightmove.co.uk/estate-agents/agent/Kinleigh-Folkard-and-Hayward---Sales/Fulham-148607.html,2 bedroom flat for sale,72672103,7,675000.0,2019-07-13 07:49:57.562535,http://www.rightmove.co.uk/property-for-sale/property-72672103.html,2,51.488501,-0.20749099999999998,Leasehold,48.0,73.0,42.0,0,0,-2.5,-3.0,-24.0,0.75,-28.75
"Tollington Park, Stroud Green, London, N4",http://www.rightmove.co.uk/estate-agents/agent/Martyn-Gerrard/Crouch-End-13099.html,3 bedroom maisonette for sale,81378719,7,675000.0,2019-07-13 07:49:57.562535,http://www.rightmove.co.uk/property-for-sale/property-81378719.html,3,51.566536,-0.113587,Share of Freehold,38.0,57.0,64.0,5,3,-2.5,3.5,-2.6666666666666665,-9.5,-3.166666666666666
"Cavendish Mansions, Mill Lane, West Hampstead, NW6",http://www.rightmove.co.uk/estate-agents/agent/Admiral-Property-Partnership-Ltd/London-141935.html,2 bedroom apartment for sale,63637314,7,675000.0,2019-07-13 07:49:57.562535,http://www.rightmove.co.uk/property-for-sale/property-63637314.html,2,51.552054999999996,-0.194076,Leasehold,51.0,69.0,60.0,0,0,-2.5,-6.0,-18.666666666666664,-7.5,-34.666666666666664
"Peckham Rye, East Dulwich, London SE22",http://www.rightmove.co.uk/estate-agents/agent/haart/Dulwich-11440.html,2 bedroom flat for sale,63450654,8,600000.0,2019-07-13 07:49:57.886384,http://www.rightmove.co.uk/property-for-sale/property-63450654.html,2,51.459644,-0.06654199999999999,Leasehold,30.0,43.0,18.0,0,0,1.25,7.5,8.0,5.0,21.75
"Biscayne Avenue, London, E14",http://www.rightmove.co.uk/estate-agents/agent/Madley-Property-Services-Ltd/Surrey-Quays-171689.html,2 bedroom flat for sale,72504217,8,675000.0,2019-07-13 07:49:57.886384,http://www.rightmove.co.uk/property-for-sale/property-72504217.html,2,51.506824,-0.005608,Leasehold,6.0,28.0,42.0,0,0,-2.5,10.0,10.0,0.75,18.25
"Kirkwood Road, London, SE15",http://www.rightmove.co.uk/estate-agents/agent/Purplebricks/covering-London-151079.html,3 bedroom semi-detached house for sale,63518616,8,675000.0,2019-07-13 07:49:57.886384,http://www.rightmove.co.uk/property-for-sale/property-63518616.html,3,51.467061,-0.058304999999999996,Freehold,25.0,40.0,21.0,5,3,-2.5,10.0,10.0,5.0,30.5
"Hubert Grove, Clapham",http://www.rightmove.co.uk/estate-agents/agent/Dexters/Clapham-78413.html,3 bedroom flat for sale,72664174,8,675000.0,2019-07-13 07:49:57.886384,http://www.rightmove.co.uk/property-for-sale/property-72664174.html,3,51.464267,-0.122629,-,36.0,56.0,25.0,5,0,-2.5,4.5,-1.3333333333333333,5.0,10.666666666666668
"Burntwood Lane, Earlsfield",http://www.rightmove.co.uk/estate-agents/agent/Jacksons-Estate-Agents/Earlsfield-65794.html,3 bedroom flat for sale,63492252,8,675000.0,2019-07-13 07:49:57.886384,http://www.rightmove.co.uk/property-for-sale/property-63492252.html,3,51.437222,-0.182868,-,49.0,65.0,26.0,5,0,-2.5,-4.0,-13.333333333333332,4.75,-10.083333333333332
"Great Dover Street, London Bridge, London, SE1",http://www.rightmove.co.uk/estate-agents/agent/Foxtons/London-Bridge-55101.html,2 bedroom flat for sale,72708499,8,675000.0,2019-07-13 07:49:57.886384,http://www.rightmove.co.uk/property-for-sale/property-72708499.html,2,51.499251,-0.092383,Leasehold,22.0,47.0,34.0,0,0,-2.5,10.0,5.333333333333334,2.75,15.583333333333334
"Lisson Grove, Marylebone",http://www.rightmove.co.uk/estate-agents/agent/Dexters/Marylebone-62293.html,2 bedroom flat for sale,59612313,8,675000.0,2019-07-13 07:49:57.886384,http://www.rightmove.co.uk/property-for-sale/property-59612313.html,2,51.522718,-0.165802,-,38.0,65.0,47.0,0,0,-2.5,3.5,-13.333333333333332,-1.0,-13.333333333333332
"Tudor Close, London, NW9",http://www.rightmove.co.uk/estate-agents/agent/Winkworth/Kingsbury-Sales-65598.html,3 bedroom bungalow for sale,72690319,8,675000.0,2019-07-13 07:49:57.886384,http://www.rightmove.co.uk/property-for-sale/property-72690319.html,3,51.567665999999996,-0.26324000000000003,-,51.0,69.0,67.0,5,0,-2.5,-6.0,-18.666666666666664,-11.0,-33.166666666666664
"Edbrooke Road, London, W9",http://www.rightmove.co.uk/estate-agents/agent/Marsh-and-Parsons/Little-Venice-52617.html,2 bedroom apartment for sale,82999232,8,675000.0,2019-07-13 07:49:57.886384,http://www.rightmove.co.uk/property-for-sale/property-82999232.html,2,51.524879999999996,-0.1956,Share of Freehold,43.0,68.0,52.0,0,3,-2.5,1.0,-17.333333333333332,-3.5,-19.333333333333332
"Jerningham Road, New Cross, SE14",http://www.rightmove.co.uk/estate-agents/agent/Mundays/London-143609.html,3 bedroom flat for sale,82658327,8,675000.0,2019-07-13 07:49:57.886384,http://www.rightmove.co.uk/property-for-sale/property-82658327.html,3,51.473599,-0.040464,Share of Freehold,22.0,34.0,21.0,5,3,-2.5,10.0,10.0,5.0,30.5
"Grove Crescent, LONDON, NW9 0LS",http://www.rightmove.co.uk/estate-agents/agent/Andrews-Estate-Agents/Kingsbury-4571.html,3 bedroom semi-detached house for sale,83287766,9,600000.0,2019-07-13 07:49:58.252187,http://www.rightmove.co.uk/property-for-sale/property-83287766.html,3,51.589706,-0.262653,-,53.0,72.0,73.0,5,0,1.25,-8.0,-22.666666666666664,-14.0,-38.416666666666664
"Waterfront II, Royal Arsenal Riverside",http://www.rightmove.co.uk/estate-agents/agent/Vanquish-Real-Estate-Investment-and-Management/London-65406.html,2 bedroom flat for sale,72790798,9,674999.0,2019-07-13 07:49:58.252187,http://www.rightmove.co.uk/property-for-sale/property-72790798.html,2,51.494786,0.06869700000000001,Leasehold,23.0,13.0,40.0,0,0,-2.4999,10.0,10.0,1.25,18.7501
"Grove House, Hackney, London, E9",http://www.rightmove.co.uk/estate-agents/agent/Foxtons/Hackney-101522.html,3 bedroom flat for sale,68242456,9,674995.0,2019-07-13 07:49:58.252187,http://www.rightmove.co.uk/property-for-sale/property-68242456.html,3,51.541278999999996,-0.052428999999999996,Leasehold,18.0,36.0,46.0,5,0,-2.4995,10.0,10.0,-0.5,22.000500000000002
"Kensington House, Woodford Green, Essex, IG8",http://www.rightmove.co.uk/estate-agents/agent/John-Thoma-Bespoke-Estate-Agency/Chigwell-Branch-121954.html,2 bedroom ground floor flat for sale,83154935,9,674995.0,2019-07-13 07:49:58.252187,http://www.rightmove.co.uk/property-for-sale/property-83154935.html,2,51.603357,0.069813,Leasehold,31.0,48.0,59.0,0,0,-2.4995,7.0,4.666666666666667,-7.0,2.1671666666666667
"Harvist Road, London, NW6",http://www.rightmove.co.uk/estate-agents/agent/REMAX-Central/Westminster-45920.html,2 bedroom apartment for sale,63479388,9,674950.0,2019-07-13 07:49:58.252187,http://www.rightmove.co.uk/property-for-sale/property-63479388.html,2,51.532918,-0.212956,Share of Freehold,50.0,74.0,58.0,0,3,-2.495,-5.0,-25.333333333333332,-6.5,-36.32833333333333
"Cross Way, Willesden, London, NW10 ",http://www.rightmove.co.uk/estate-agents/agent/Camerons-Stiff-and-Co/Queens-Park---Sales-25350.html,3 bedroom house for sale,71714596,9,674950.0,2019-07-13 07:49:58.252187,http://www.rightmove.co.uk/property-for-sale/property-71714596.html,3,51.542322999999996,-0.235371,-,55.0,72.0,58.0,5,0,-2.495,-10.0,-22.666666666666664,-6.5,-36.66166666666666
"Lingards Road, Lewisham, London, SE13",http://www.rightmove.co.uk/estate-agents/agent/Foxtons/Blackheath-75148.html,3 bedroom flat for sale,82995032,9,670000.0,2019-07-13 07:49:58.252187,http://www.rightmove.co.uk/property-for-sale/property-82995032.html,3,51.457574,-0.0091,Leasehold,26.0,31.0,23.0,5,0,-2.0,9.5,10.0,5.0,27.5
"Burnbury Road, Balham",http://www.rightmove.co.uk/estate-agents/agent/Jacksons-Estate-Agents/Balham-65785.html,2 bedroom flat for sale,82653884,9,670000.0,2019-07-13 07:49:58.252187,http://www.rightmove.co.uk/property-for-sale/property-82653884.html,2,51.443413,-0.139821,-,44.0,56.0,19.0,0,0,-2.0,0.5,-1.3333333333333333,5.0,2.166666666666667
"Calders Wharf, Saunders Ness Road, London, E14",http://www.rightmove.co.uk/estate-agents/agent/Ernest-Brooks-International/London-162914.html,2 bedroom apartment for sale,63619296,9,670000.0,2019-07-13 07:49:58.252187,http://www.rightmove.co.uk/property-for-sale/property-63619296.html,2,51.487694,-0.0059960000000000005,Leasehold,10.0,33.0,46.0,0,0,-2.0,10.0,10.0,-0.5,17.5
"Latimer Road, London, W10",http://www.rightmove.co.uk/estate-agents/agent/Hamptons-International-Sales/Notting-Hill-50071.html,2 bedroom flat for sale,60968268,9,670000.0,2019-07-13 07:49:58.252187,http://www.rightmove.co.uk/property-for-sale/property-60968268.html,2,51.517259,-0.22359099999999998,Leasehold,49.0,73.0,50.0,0,0,-2.0,-4.0,-24.0,-2.5,-32.5
"City Walk, London Bridge",http://www.rightmove.co.uk/estate-agents/agent/Kinleigh-Folkard-and-Hayward---Sales/London-Bridge-82717.html,2 bedroom flat for sale,62800272,9,669999.0,2019-07-13 07:49:58.252187,http://www.rightmove.co.uk/property-for-sale/property-62800272.html,2,51.499051,-0.08418099999999999,Leasehold,17.0,42.0,33.0,0,0,-1.9999,10.0,8.666666666666666,3.0,19.666766666666668
"Crestway, Putney",http://www.rightmove.co.uk/estate-agents/agent/Brinkleys-Estate-Agents/Putney-42912.html,3 bedroom terraced house for sale,72773491,9,669995.0,2019-07-13 07:49:58.252187,http://www.rightmove.co.uk/property-for-sale/property-72773491.html,3,51.455889,-0.23914000000000002,Freehold,58.0,77.0,42.0,5,3,-1.9995,-13.0,-29.333333333333332,0.75,-35.58283333333333
"Cheviot Gardens, London, NW2",http://www.rightmove.co.uk/estate-agents/agent/Greene-and-Co/West-Hampstead-37304.html,3 bedroom semi-detached house for sale,72707734,9,665000.0,2019-07-13 07:49:58.252187,http://www.rightmove.co.uk/property-for-sale/property-72707734.html,3,51.567328,-0.208601,Freehold,46.0,65.0,65.0,5,3,-1.5,-1.0,-13.333333333333332,-10.0,-17.833333333333332
"Queens Road, London",http://www.rightmove.co.uk/estate-agents/agent/Barnard-Marcus/Peckham-158978.html,2 bedroom apartment for sale,63611724,9,665000.0,2019-07-13 07:49:58.252187,http://www.rightmove.co.uk/property-for-sale/property-63611724.html,2,51.47367,-0.05708,Leasehold,22.0,37.0,22.0,0,0,-1.5,10.0,10.0,5.0,23.5
"The Gallery, 290 Camberwell Road, London",http://www.rightmove.co.uk/estate-agents/agent/Hastings-International/London-Bridge-14606.html,3 bedroom apartment for sale,63591234,9,665000.0,2019-07-13 07:49:58.252187,http://www.rightmove.co.uk/property-for-sale/property-63591234.html,3,51.474678000000004,-0.094968,Leasehold,28.0,46.0,22.0,5,0,-1.5,8.5,6.0,5.0,23.0
"Seely Road, Tooting",http://www.rightmove.co.uk/estate-agents/agent/Kinleigh-Folkard-and-Hayward---Sales/Tooting-55543.html,3 bedroom terraced house for sale,83269238,9,665000.0,2019-07-13 07:49:58.252187,http://www.rightmove.co.uk/property-for-sale/property-83269238.html,3,51.420502,-0.154348,Freehold,54.0,63.0,21.0,5,3,-1.5,-9.0,-10.666666666666666,5.0,-8.166666666666666
"Constantine Road, Hampstead, London, NW3",http://www.rightmove.co.uk/estate-agents/agent/Foxtons/Hampstead-15957.html,2 bedroom flat for sale,72487642,9,665000.0,2019-07-13 07:49:58.252187,http://www.rightmove.co.uk/property-for-sale/property-72487642.html,2,51.555085999999996,-0.161908,Leasehold,45.0,66.0,62.0,0,0,-1.5,0.0,-14.666666666666666,-8.5,-24.666666666666664
"Hendon Lane, Finchley, N3",http://www.rightmove.co.uk/estate-agents/agent/Jeremy-Leaf-and-Co/North-Finchley-7167.html,2 bedroom flat for sale,70247602,9,665000.0,2019-07-13 07:49:58.252187,http://www.rightmove.co.uk/property-for-sale/property-70247602.html,2,51.596897999999996,-0.203923,Share of Freehold,43.0,63.0,72.0,0,3,-1.5,1.0,-10.666666666666666,-13.5,-21.666666666666664
"Arodene Road, London SW2",http://www.rightmove.co.uk/estate-agents/agent/Keating-Estates/Herne-Hill-145427.html,3 bedroom flat for sale,79925639,9,665000.0,2019-07-13 07:49:58.252187,http://www.rightmove.co.uk/property-for-sale/property-79925639.html,3,51.452329,-0.117191,Share of Freehold,40.0,54.0,18.0,5,3,-1.5,2.5,0.6666666666666679,5.0,14.666666666666668
"Sternhold Avenue, Balham",http://www.rightmove.co.uk/estate-agents/agent/Jacksons-Estate-Agents/Balham-65785.html,3 bedroom flat for sale,83113184,9,665000.0,2019-07-13 07:49:58.252187,http://www.rightmove.co.uk/property-for-sale/property-83113184.html,3,51.440336,-0.134936,-,45.0,55.0,17.0,5,0,-1.5,0.0,0.0,5.0,8.5
"Waterfront III, Royal Arsenal Riverside",http://www.rightmove.co.uk/estate-agents/agent/Vanquish-Real-Estate-Investment-and-Management/London-65406.html,2 bedroom flat for sale,72790699,9,660000.0,2019-07-13 07:49:58.252187,http://www.rightmove.co.uk/property-for-sale/property-72790699.html,2,51.492804,0.073951,Leasehold,27.0,10.0,44.0,0,0,-1.0,9.0,10.0,0.25,18.25
"Regan Yard, 40 Regan Way, Hoxton, London, N1",http://www.rightmove.co.uk/estate-agents/agent/NDLDN/London-197795.html,3 bedroom apartment for sale,72722572,9,660000.0,2019-07-13 07:49:58.252187,http://www.rightmove.co.uk/property-for-sale/property-72722572.html,3,51.531951,-0.080704,Leasehold,22.0,44.0,50.0,5,0,-1.0,10.0,7.333333333333334,-2.5,18.833333333333336
"Camden Road, Wanstead",http://www.rightmove.co.uk/estate-agents/agent/Martin-and-Co/Wanstead---Lettings-and-Sales-45525.html,2 bedroom terraced house for sale,63495837,9,660000.0,2019-07-13 07:49:58.252187,http://www.rightmove.co.uk/property-for-sale/property-63495837.html,2,51.575718,0.030456999999999998,Freehold,21.0,39.0,49.0,0,3,-1.0,10.0,10.0,-2.0,20.0
"Lanhill Road, Maida Vale",http://www.rightmove.co.uk/estate-agents/agent/Dexters/Maida-Vale-39741.html,2 bedroom flat for sale,72707737,9,660000.0,2019-07-13 07:49:58.252187,http://www.rightmove.co.uk/property-for-sale/property-72707737.html,2,51.526434,-0.195993,-,44.0,69.0,53.0,0,0,-1.0,0.5,-18.666666666666664,-4.0,-23.166666666666664
"Starboard Way,
Royal Wharf,
London,
E16",http://www.rightmove.co.uk/developer/branch/Site-Sales/Traders-Quarter-200357.html,3 bedroom apartment for sale,83243525,9,660000.0,2019-07-13 07:49:58.252187,http://www.rightmove.co.uk/property-for-sale/property-83243525.html,3,51.500892,0.030875,Leasehold,10.0,32.0,42.0,5,0,-1.0,10.0,10.0,0.75,24.75
"Royal Gate Apartments, 1 Rutland Road, London, E9",http://www.rightmove.co.uk/estate-agents/agent/Hamptons-International-Sales/Islington-37916.html,2 bedroom flat for sale,71701510,10,550000.0,2019-07-13 07:49:58.613448,http://www.rightmove.co.uk/property-for-sale/property-71701510.html,2,51.53751,-0.045349,Share of Freehold,15.0,34.0,47.0,0,3,2.5,10.0,10.0,-1.0,24.5
"Bergholt Mews, London, London, NW1 0BQ",http://www.rightmove.co.uk/estate-agents/agent/Hunters/Camden-97142.html,2 bedroom terraced house for sale,82982102,10,660000.0,2019-07-13 07:49:58.613448,http://www.rightmove.co.uk/property-for-sale/property-82982102.html,2,51.54014,-0.133937,-,36.0,59.0,55.0,0,0,-1.0,4.5,-5.333333333333333,-5.0,-6.833333333333333
"The Avenue, Highams Park, E4",http://www.rightmove.co.uk/estate-agents/agent/Charlesons/Gants-Hill-40074.html,3 bedroom semi-detached house for sale,71850922,10,659995.0,2019-07-13 07:49:58.613448,http://www.rightmove.co.uk/property-for-sale/property-71850922.html,3,51.609683000000004,0.0006309999999999999,Freehold,23.0,46.0,56.0,5,3,-0.9995,10.0,6.0,-5.5,17.5005
"Upper Richmond Road, London, SW15",http://www.rightmove.co.uk/estate-agents/agent/Chestertons-Estate-Agents/Putney-31635.html,2 bedroom flat for sale,78750458,10,659950.0,2019-07-13 07:49:58.613448,http://www.rightmove.co.uk/property-for-sale/property-78750458.html,2,51.45907800000001,-0.209069,Leasehold,51.0,70.0,34.0,0,0,-0.995,-6.0,-20.0,2.75,-24.245
"Regents Park Road,Finchley,N3",http://www.rightmove.co.uk/estate-agents/agent/Chancellors/Finchley-35948.html,2 bedroom flat for sale,63446832,10,659950.0,2019-07-13 07:49:58.613448,http://www.rightmove.co.uk/property-for-sale/property-63446832.html,2,51.597,-0.197,-,42.0,62.0,72.0,0,0,-0.995,1.5,-9.333333333333332,-13.5,-22.328333333333333
"Upper Richmond Road, Putney",http://www.rightmove.co.uk/estate-agents/agent/Dexters/Putney-84803.html,2 bedroom flat for sale,72124723,10,659950.0,2019-07-13 07:49:58.613448,http://www.rightmove.co.uk/property-for-sale/property-72124723.html,2,51.459118,-0.209116,-,50.0,70.0,34.0,0,0,-0.995,-5.0,-20.0,2.75,-23.245
"Darfield Road, Brockley, London, SE4 1ET",http://www.rightmove.co.uk/estate-agents/agent/Bryan-and-Keegan/London-102278.html,3 bedroom terraced house for sale,63595719,10,659000.0,2019-07-13 07:49:58.613448,http://www.rightmove.co.uk/property-for-sale/property-63595719.html,3,51.455434999999994,-0.035197000000000006,Freehold,27.0,36.0,17.0,5,3,-0.9,9.0,10.0,5.0,31.1
"Yeoman Street,
London,
SE8 5DT",http://www.rightmove.co.uk/developer/branch/Fairview-Homes/Hydro-193100.html,3 bedroom apartment for sale,83222993,10,657000.0,2019-07-13 07:49:58.613448,http://www.rightmove.co.uk/property-for-sale/property-83222993.html,3,51.492022999999996,-0.039819,Leasehold,16.0,35.0,29.0,5,0,-0.7,10.0,10.0,4.0,28.3
"Bedford House, 215 Balham High Road, London, SW17",http://www.rightmove.co.uk/estate-agents/agent/Savills-New-Homes/South-West-London-107003.html,2 bedroom apartment for sale,63479544,10,655000.0,2019-07-13 07:49:58.613448,http://www.rightmove.co.uk/property-for-sale/property-63479544.html,2,51.439776,-0.155082,Leasehold,46.0,59.0,21.0,0,0,-0.5,-1.0,-5.333333333333333,5.0,-1.833333333333333
"Roach Road, 
London,
E3",http://www.rightmove.co.uk/developer/branch/Hill-Residential-Limited/Fish-Island-Village-176129.html,2 bedroom property for sale,83195477,10,652500.0,2019-07-13 07:49:58.613448,http://www.rightmove.co.uk/property-for-sale/property-83195477.html,2,51.540316,-0.0239,-,14.0,32.0,43.0,0,0,-0.25,10.0,10.0,0.5,20.25
"Leighton Road, London, NW5",http://www.rightmove.co.uk/estate-agents/agent/Winkworth/Kentish-Town-38250.html,2 bedroom apartment for sale,83105603,10,650000.0,2019-07-13 07:49:58.613448,http://www.rightmove.co.uk/property-for-sale/property-83105603.html,2,51.550740999999995,-0.13738699999999998,Leasehold,38.0,58.0,59.0,0,0,0.0,3.5,-4.0,-7.0,-7.5
"Weltje Road, Hammersmith",http://www.rightmove.co.uk/estate-agents/agent/Kinleigh-Folkard-and-Hayward---Sales/Hammersmith-55471.html,2 bedroom flat for sale,72671611,10,650000.0,2019-07-13 07:49:58.613448,http://www.rightmove.co.uk/property-for-sale/property-72671611.html,2,51.490846999999995,-0.23764899999999997,Share of Freehold,50.0,75.0,49.0,0,3,0.0,-5.0,-26.666666666666664,-2.0,-30.666666666666664
"Tithe Walk, Mill Hill, London, NW7",http://www.rightmove.co.uk/estate-agents/agent/Ellis-and-Co/Mill-Hill-7313.html,3 bedroom semi-detached house for sale,83095268,10,650000.0,2019-07-13 07:49:58.613448,http://www.rightmove.co.uk/property-for-sale/property-83095268.html,3,51.60455,-0.236801,Freehold,46.0,66.0,71.0,5,3,0.0,-1.0,-14.666666666666666,-13.0,-20.666666666666664
"River Gardens Walk, London, SE10",http://www.rightmove.co.uk/estate-agents/agent/JLL/Greenwich-5657.html,2 bedroom apartment for sale,72654412,10,650000.0,2019-07-13 07:49:58.613448,http://www.rightmove.co.uk/property-for-sale/property-72654412.html,2,51.488382,0.003064,Leasehold,18.0,24.0,34.0,0,0,0.0,10.0,10.0,2.75,22.75
"Wellesley Mansions, Fulham, London, W14",http://www.rightmove.co.uk/estate-agents/agent/John-D-Wood-Sales/Fulham-Broadway-841.html,2 bedroom flat for sale,61631211,10,650000.0,2019-07-13 07:49:58.613448,http://www.rightmove.co.uk/property-for-sale/property-61631211.html,2,51.491586,-0.20692199999999997,Share of Freehold,43.0,74.0,42.0,0,3,0.0,1.0,-25.333333333333332,0.75,-20.583333333333332
"Waldegrave Road, London, N8",http://www.rightmove.co.uk/estate-agents/agent/Property-Inc/Harringay-191252.html,3 bedroom terraced house for sale,83114219,10,650000.0,2019-07-13 07:49:58.613448,http://www.rightmove.co.uk/property-for-sale/property-83114219.html,3,51.59073,-0.105053,Freehold,38.0,57.0,68.0,5,3,0.0,3.5,-2.6666666666666665,-11.5,-2.666666666666666
TWO DOUBLE BEDROOM APOSTLE HOUSE WITH WEST FACING GARDEN - Edna Road,http://www.rightmove.co.uk/estate-agents/agent/Ellisons/Raynes-Park-26249.html,2 bedroom house for sale,63476478,10,650000.0,2019-07-13 07:49:58.613448,http://www.rightmove.co.uk/property-for-sale/property-63476478.html,2,51.408611,-0.22352199999999997,-,65.0,80.0,37.0,0,0,0.0,-20.0,-33.33333333333333,2.0,-51.33333333333333
"Tamworth Street, London",http://www.rightmove.co.uk/estate-agents/agent/Barnard-Marcus/Earls-Court-1895.html,2 bedroom ground floor flat for sale,83233025,10,650000.0,2019-07-13 07:49:58.613448,http://www.rightmove.co.uk/property-for-sale/property-83233025.html,2,51.4845,-0.19814,Leasehold,46.0,71.0,39.0,0,0,0.0,-1.0,-21.333333333333332,1.5,-20.833333333333332
"Kings Avenue, Clapham",http://www.rightmove.co.uk/estate-agents/agent/Dexters/Clapham-78413.html,2 bedroom flat for sale,72875155,10,650000.0,2019-07-13 07:49:58.613448,http://www.rightmove.co.uk/property-for-sale/property-72875155.html,2,51.453267,-0.13037,-,39.0,55.0,19.0,0,0,0.0,3.0,0.0,5.0,8.0
"Dalston Sq, Hackney, E8",http://www.rightmove.co.uk/estate-agents/agent/Currell/Hackney---Sales-12602.html,2 bedroom apartment for sale,83106290,10,650000.0,2019-07-13 07:49:58.613448,http://www.rightmove.co.uk/property-for-sale/property-83106290.html,2,51.545709,-0.07436799999999999,Leasehold,24.0,42.0,53.0,0,0,0.0,10.0,8.666666666666666,-4.0,14.666666666666664
"Lillington Gardens, London, SW1V",http://www.rightmove.co.uk/estate-agents/agent/Dauntons/London-95275.html,3 bedroom property for sale,63590166,10,650000.0,2019-07-13 07:49:58.613448,http://www.rightmove.co.uk/property-for-sale/property-63590166.html,3,51.48981,-0.133374,-,33.0,56.0,32.0,5,0,0.0,6.0,-1.3333333333333333,3.25,12.916666666666666
"Devonport Road, Shepherd's Bush W12",http://www.rightmove.co.uk/estate-agents/agent/Kerr-and-Co/London-47967.html,2 bedroom flat for sale,83068763,10,650000.0,2019-07-13 07:49:58.613448,http://www.rightmove.co.uk/property-for-sale/property-83068763.html,2,51.502559999999995,-0.23065100000000002,Share of Freehold,50.0,80.0,50.0,0,3,0.0,-5.0,-33.33333333333333,-2.5,-37.83333333333333
"Archbishops Place, Brixton Hill, London, SW2",http://www.rightmove.co.uk/estate-agents/agent/Foxtons/Brixton-56751.html,3 bedroom semi-detached house for sale,77523617,11,680000.0,2019-07-13 07:49:58.989708,http://www.rightmove.co.uk/property-for-sale/property-77523617.html,3,51.449238,-0.11903299999999999,Freehold,43.0,53.0,17.0,5,3,-3.0,1.0,1.333333333333334,5.0,12.333333333333334
"Khama Road, Tooting Broadway, London, SW17",http://www.rightmove.co.uk/estate-agents/agent/Foxtons/Tooting-111050.html,3 bedroom terraced house for sale,83258750,11,650000.0,2019-07-13 07:49:58.989708,http://www.rightmove.co.uk/property-for-sale/property-83258750.html,3,51.429817,-0.172535,Freehold,52.0,66.0,25.0,5,3,0.0,-7.0,-14.666666666666666,5.0,-8.666666666666666
"Roland Road, Walthamstow, London, E17",http://www.rightmove.co.uk/estate-agents/agent/Estates17/Walthamstow-94276.html,3 bedroom terraced house for sale,77232986,11,650000.0,2019-07-13 07:49:58.989708,http://www.rightmove.co.uk/property-for-sale/property-77232986.html,3,51.583346999999996,-0.001132,-,23.0,39.0,52.0,5,0,0.0,10.0,10.0,-3.5,21.5
"College Road, Dulwich Village",http://www.rightmove.co.uk/estate-agents/agent/Kinleigh-Folkard-and-Hayward---Sales/Dulwich-Village-55435.html,3 bedroom flat for sale,72882253,11,650000.0,2019-07-13 07:49:58.989708,http://www.rightmove.co.uk/property-for-sale/property-72882253.html,3,51.434697,-0.080688,Leasehold,40.0,48.0,8.0,5,0,0.0,2.5,4.666666666666667,5.0,17.166666666666668
"Barrington Road, Crouch End, London, N8",http://www.rightmove.co.uk/estate-agents/agent/Martyn-Gerrard/Crouch-End-13099.html,2 bedroom apartment for sale,83040137,11,650000.0,2019-07-13 07:49:58.989708,http://www.rightmove.co.uk/property-for-sale/property-83040137.html,2,51.584521,-0.127919,Leasehold,43.0,62.0,73.0,0,0,0.0,1.0,-9.333333333333332,-14.0,-22.333333333333332
"Wandle Bank, Colliers Wood SW19",http://www.rightmove.co.uk/estate-agents/agent/ludlowthompson/Tooting---Sales-77486.html,3 bedroom semi-detached house for sale,63410322,11,650000.0,2019-07-13 07:49:58.989708,http://www.rightmove.co.uk/property-for-sale/property-63410322.html,3,51.417687,-0.181355,-,58.0,73.0,31.0,5,0,0.0,-13.0,-24.0,3.5,-28.5
"Graham Road, London, E8",http://www.rightmove.co.uk/estate-agents/agent/Keatons/Hackney-22268.html,3 bedroom terraced house for sale,81301799,11,650000.0,2019-07-13 07:49:58.989708,http://www.rightmove.co.uk/property-for-sale/property-81301799.html,3,51.545888,-0.06741699999999999,Leasehold,22.0,39.0,51.0,5,0,0.0,10.0,10.0,-3.0,22.0
"Franciscan Road, Tooting",http://www.rightmove.co.uk/estate-agents/agent/Jacksons-Estate-Agents/Tooting-72056.html,2 bedroom flat for sale,83283539,11,650000.0,2019-07-13 07:49:58.989708,http://www.rightmove.co.uk/property-for-sale/property-83283539.html,2,51.431064,-0.153915,-,50.0,60.0,19.0,0,0,0.0,-5.0,-6.666666666666666,5.0,-6.666666666666666
"Hawes Lane, West Wickham",http://www.rightmove.co.uk/estate-agents/agent/Alan-de-Maid/West-Wickham-5076.html,3 bedroom semi-detached house for sale,72640864,11,650000.0,2019-07-13 07:49:58.989708,http://www.rightmove.co.uk/property-for-sale/property-72640864.html,3,51.379756,-0.012695,-,41.0,43.0,15.0,5,0,0.0,2.0,8.0,5.0,20.0
"Crystal Palace Road, East Dulwich, SE22",http://www.rightmove.co.uk/estate-agents/agent/Mundays/London-143609.html,2 bedroom flat for sale,83244155,11,650000.0,2019-07-13 07:49:58.989708,http://www.rightmove.co.uk/property-for-sale/property-83244155.html,2,51.459637,-0.07158099999999999,Leasehold,30.0,43.0,16.0,0,0,0.0,7.5,8.0,5.0,20.5
"Belmont Lane, Chislehurst",http://www.rightmove.co.uk/estate-agents/agent/Kinleigh-Folkard-and-Hayward---Sales/Chislehurst-55414.html,3 bedroom semi-detached house for sale,63441789,11,650000.0,2019-07-13 07:49:58.989708,http://www.rightmove.co.uk/property-for-sale/property-63441789.html,3,51.423653,0.071464,Freehold,28.0,30.0,31.0,5,3,0.0,8.5,10.0,3.5,30.0
"2 Park House, Bassano Street, East Dulwich, SE22",http://www.rightmove.co.uk/estate-agents/agent/Truepennys-Property-Consultants/Dulwich-49874.html,2 bedroom flat for sale,72784231,11,650000.0,2019-07-13 07:49:58.989708,http://www.rightmove.co.uk/property-for-sale/property-72784231.html,2,51.456487,-0.076895,Share of Freehold,32.0,46.0,16.0,0,3,0.0,6.5,6.0,5.0,20.5
"London Terrace, Hackney",http://www.rightmove.co.uk/estate-agents/agent/Dexters/Hackney-113191.html,2 bedroom flat for sale,81331247,11,650000.0,2019-07-13 07:49:58.989708,http://www.rightmove.co.uk/property-for-sale/property-81331247.html,2,51.530906,-0.068609,-,18.0,39.0,50.0,0,0,0.0,10.0,10.0,-2.5,17.5
"Randall Place, London, SE10",http://www.rightmove.co.uk/estate-agents/agent/Winkworth/Greenwich-99271.html,2 bedroom terraced house for sale,76603610,11,650000.0,2019-07-13 07:49:58.989708,http://www.rightmove.co.uk/property-for-sale/property-76603610.html,2,51.479603000000004,-0.012693000000000001,Freehold,21.0,26.0,29.0,0,3,0.0,10.0,10.0,4.0,27.0
"Bovingdon Road, Parsons Green, SW6",http://www.rightmove.co.uk/estate-agents/agent/Portico/Fulham-6817.html,2 bedroom flat for sale,82405721,11,650000.0,2019-07-13 07:49:58.989708,http://www.rightmove.co.uk/property-for-sale/property-82405721.html,2,51.474663,-0.19061,Freehold,44.0,70.0,32.0,0,3,0.0,0.5,-20.0,3.25,-13.25
"Queen Elizabeth Olympic Park, 
10 Olympic Park Avenue,
Stratford London,
E20 1FT",http://www.rightmove.co.uk/developer/branch/Taylor-Wimpey/Chobham-Manor-113635.html,3 bedroom maisonette for sale,72741088,11,650000.0,2019-07-13 07:49:58.989708,http://www.rightmove.co.uk/property-for-sale/property-72741088.html,3,51.546884999999996,-0.013519,-,18.0,35.0,47.0,5,0,0.0,10.0,10.0,-1.0,24.0
"Vera Road, Fulham, SW6",http://www.rightmove.co.uk/estate-agents/agent/Chestertons-Estate-Agents/Fulham-Road-31572.html,2 bedroom flat for sale,72656140,11,650000.0,2019-07-13 07:49:58.989708,http://www.rightmove.co.uk/property-for-sale/property-72656140.html,2,51.476556,-0.21076199999999998,Leasehold,51.0,74.0,38.0,0,0,0.0,-6.0,-25.333333333333332,1.75,-29.583333333333332
"Waldron Road, Earlsfield",http://www.rightmove.co.uk/estate-agents/agent/Jacksons-Estate-Agents/Earlsfield-65794.html,2 bedroom flat for sale,63477612,11,650000.0,2019-07-13 07:49:58.989708,http://www.rightmove.co.uk/property-for-sale/property-63477612.html,2,51.437803,-0.183437,-,50.0,66.0,26.0,0,0,0.0,-5.0,-14.666666666666666,4.75,-14.916666666666664
"Inglis Way, Mill Hill, NW7",http://www.rightmove.co.uk/estate-agents/agent/Cosway-Estates/Mill-Hill-9970.html,3 bedroom semi-detached house for sale,71189863,11,650000.0,2019-07-13 07:49:58.989708,http://www.rightmove.co.uk/property-for-sale/property-71189863.html,3,51.610735,-0.206725,-,46.0,65.0,75.0,5,0,0.0,-1.0,-13.333333333333332,-15.0,-24.333333333333332
"Rainham Road, London, NW10 ",http://www.rightmove.co.uk/estate-agents/agent/Camerons-Stiff-and-Co/Willesden-Green-London-Sales-13658.html,2 bedroom flat for sale,72890854,11,650000.0,2019-07-13 07:49:58.989708,http://www.rightmove.co.uk/property-for-sale/property-72890854.html,2,51.529889000000004,-0.220887,-,49.0,73.0,58.0,0,0,0.0,-4.0,-24.0,-6.5,-34.5
"Oldfield Road, London",http://www.rightmove.co.uk/estate-agents/agent/Hoopers/Neasden-10007.html,3 bedroom terraced house for sale,63440028,11,650000.0,2019-07-13 07:49:58.989708,http://www.rightmove.co.uk/property-for-sale/property-63440028.html,3,51.545703,-0.248823,Freehold,53.0,69.0,60.0,5,3,0.0,-8.0,-18.666666666666664,-7.5,-26.166666666666664
"Park Avenue, West Wickham",http://www.rightmove.co.uk/estate-agents/agent/Alan-de-Maid/West-Wickham-5076.html,3 bedroom house for sale,72562816,11,650000.0,2019-07-13 07:49:58.989708,http://www.rightmove.co.uk/property-for-sale/property-72562816.html,3,51.374174,-0.015804,Freehold,45.0,46.0,16.0,5,3,0.0,0.0,6.0,5.0,19.0
"Bassano Street, Park House, East Dulwich, London, SE22",http://www.rightmove.co.uk/estate-agents/agent/Truepennys-Property-Consultants/London-93562.html,2 bedroom flat for sale,72783724,11,650000.0,2019-07-13 07:49:58.989708,http://www.rightmove.co.uk/property-for-sale/property-72783724.html,2,51.456487,-0.076895,Share of Freehold,32.0,46.0,16.0,0,3,0.0,6.5,6.0,5.0,20.5
"Goldington Street, St Pancras, NW1",http://www.rightmove.co.uk/estate-agents/agent/Victorstone-Property-Consultants/NW1-75061.html,3 bedroom flat for sale,63015150,11,650000.0,2019-07-13 07:49:58.989708,http://www.rightmove.co.uk/property-for-sale/property-63015150.html,3,51.534343,-0.13129100000000002,Leasehold,34.0,60.0,52.0,5,0,0.0,5.5,-6.666666666666666,-3.5,0.3333333333333339
"Lightfoot Road, Crouch End N8",http://www.rightmove.co.uk/estate-agents/agent/David-Astburys-Ltd/London-176261.html,2 bedroom terraced house for sale,72804433,12,575000.0,2019-07-13 07:49:59.356518,http://www.rightmove.co.uk/property-for-sale/property-72804433.html,2,51.584959999999995,-0.119399,Freehold,44.0,59.0,71.0,0,3,1.875,0.5,-5.333333333333333,-13.0,-12.958333333333332
"Sarsfeld Road, Balham",http://www.rightmove.co.uk/estate-agents/agent/Jacksons-Estate-Agents/Balham-65785.html,3 bedroom flat for sale,83101061,12,650000.0,2019-07-13 07:49:59.356518,http://www.rightmove.co.uk/property-for-sale/property-83101061.html,3,51.442085,-0.160478,-,46.0,60.0,22.0,5,0,0.0,-1.0,-6.666666666666666,5.0,2.333333333333334
"Spencer Road, Acton",http://www.rightmove.co.uk/estate-agents/agent/Robertson-Smith-and-Kempson/Acton-6954.html,3 bedroom flat for sale,82443521,12,650000.0,2019-07-13 07:49:59.356518,http://www.rightmove.co.uk/property-for-sale/property-82443521.html,3,51.509811,-0.2681,-,52.0,79.0,56.0,5,0,0.0,-7.0,-32.0,-5.5,-39.5
"Ravenscroft Road, Beckenham, BR3",http://www.rightmove.co.uk/estate-agents/agent/Winkworth/Beckenham-44703.html,3 bedroom semi-detached house for sale,82838114,12,650000.0,2019-07-13 07:49:59.356518,http://www.rightmove.co.uk/property-for-sale/property-82838114.html,3,51.409528,-0.048669,-,41.0,46.0,7.0,5,0,0.0,2.0,6.0,5.0,18.0
"Montego Court, 48 Myrdle Street, London, E1",http://www.rightmove.co.uk/estate-agents/agent/Stirling-Ackroyd/Shoreditch-33548.html,2 bedroom flat for sale,72675853,12,650000.0,2019-07-13 07:49:59.356518,http://www.rightmove.co.uk/property-for-sale/property-72675853.html,2,51.515421999999994,-0.06334400000000001,Leasehold,11.0,38.0,41.0,0,0,0.0,10.0,10.0,1.0,21.0
"Chiswick High Road, Chiswick, London, W4",http://www.rightmove.co.uk/estate-agents/agent/Savills/Chiswick-48913.html,2 bedroom apartment for sale,72666496,12,650000.0,2019-07-13 07:49:59.356518,http://www.rightmove.co.uk/property-for-sale/property-72666496.html,2,51.492521,-0.271989,Share of Freehold,52.0,81.0,51.0,0,3,0.0,-7.0,-34.666666666666664,-3.0,-41.666666666666664
"Willows Court, 7 Sir Cyril Black Way, Wimbledon",http://www.rightmove.co.uk/estate-agents/agent/Brinkleys-Estate-Agents/Wimbledon-Park-and-Southfields-19716.html,2 bedroom terraced house for sale,62788824,12,650000.0,2019-07-13 07:49:59.356518,http://www.rightmove.co.uk/property-for-sale/property-62788824.html,2,51.418479999999995,-0.20361600000000002,Leasehold,60.0,74.0,33.0,0,0,0.0,-15.0,-25.333333333333332,3.0,-37.33333333333333
"Inks Green, Highams Park",http://www.rightmove.co.uk/estate-agents/agent/haart/Walthamstow-11600.html,3 bedroom semi-detached house for sale,83233346,12,650000.0,2019-07-13 07:49:59.356518,http://www.rightmove.co.uk/property-for-sale/property-83233346.html,3,51.61205,-0.006343,Freehold,25.0,48.0,58.0,5,3,0.0,10.0,4.666666666666667,-6.5,16.166666666666668
"Castleton Avenue, Wembley",http://www.rightmove.co.uk/estate-agents/agent/haart/Wembley-11607.html,3 bedroom semi-detached house for sale,71342236,12,650000.0,2019-07-13 07:49:59.356518,http://www.rightmove.co.uk/property-for-sale/property-71342236.html,3,51.558383,-0.29880300000000004,Freehold,57.0,75.0,68.0,5,3,0.0,-12.0,-26.666666666666664,-11.5,-42.166666666666664
"Dryden Road, Wimbledon, SW19",http://www.rightmove.co.uk/estate-agents/agent/Lauristons/Wimbledon-Hill-39896.html,3 bedroom house for sale,71950981,12,650000.0,2019-07-13 07:49:59.356518,http://www.rightmove.co.uk/property-for-sale/property-71950981.html,3,51.423018,-0.186604,Freehold,55.0,71.0,30.0,5,3,0.0,-10.0,-21.333333333333332,3.75,-19.583333333333332
"Bradley Road, Upper Norwood, London, SE19",http://www.rightmove.co.uk/estate-agents/agent/Pedder/Crystal-Palace-17108.html,3 bedroom house for sale,63559242,12,650000.0,2019-07-13 07:49:59.356518,http://www.rightmove.co.uk/property-for-sale/property-63559242.html,3,51.42109,-0.101495,-,46.0,51.0,7.0,5,0,0.0,-1.0,2.666666666666667,5.0,11.666666666666668
"Ross Court, Putney, SW15",http://www.rightmove.co.uk/estate-agents/agent/Lauristons/Putney-39914.html,3 bedroom apartment for sale,70263619,12,650000.0,2019-07-13 07:49:59.356518,http://www.rightmove.co.uk/property-for-sale/property-70263619.html,3,51.450195,-0.220207,Leasehold,55.0,74.0,39.0,5,0,0.0,-10.0,-25.333333333333332,1.5,-28.833333333333332
"Pipit Drive, Putney, London, SW15",http://www.rightmove.co.uk/estate-agents/agent/Foxtons/Putney-15963.html,2 bedroom flat for sale,72772129,12,650000.0,2019-07-13 07:49:59.356518,http://www.rightmove.co.uk/property-for-sale/property-72772129.html,2,51.454257,-0.22404699999999997,Leasehold,56.0,75.0,40.0,0,0,0.0,-11.0,-26.666666666666664,1.25,-36.416666666666664
Cleanthus Road London SE18,http://www.rightmove.co.uk/estate-agents/agent/John-Payne/Blackheath-Standard-102821.html,3 bedroom detached house for sale,78773759,12,650000.0,2019-07-13 07:49:59.356518,http://www.rightmove.co.uk/property-for-sale/property-78773759.html,3,51.471869,0.070624,Freehold,22.0,17.0,35.0,5,3,0.0,10.0,10.0,2.5,30.5
"Charlton Road, London",http://www.rightmove.co.uk/estate-agents/agent/Hart-and-Co/Harlesden-174722.html,3 bedroom terraced house for sale,72700585,12,650000.0,2019-07-13 07:49:59.356518,http://www.rightmove.co.uk/property-for-sale/property-72700585.html,3,51.539002,-0.249414,Freehold,55.0,72.0,56.0,5,3,0.0,-10.0,-22.666666666666664,-5.5,-30.166666666666664
"Lysias Road, Clapham, London SW12",http://www.rightmove.co.uk/estate-agents/agent/Keating-Estates/Clapham-6280.html,2 bedroom flat for sale,83079374,12,650000.0,2019-07-13 07:49:59.356518,http://www.rightmove.co.uk/property-for-sale/property-83079374.html,2,51.450846999999996,-0.152095,-,42.0,58.0,22.0,0,0,0.0,1.5,-4.0,5.0,2.5
"Tooting High Street, London, SW17",http://www.rightmove.co.uk/estate-agents/agent/Housesimplecom/Nationwide-29376.html,2 bedroom penthouse for sale,83074832,12,650000.0,2019-07-13 07:49:59.356518,http://www.rightmove.co.uk/property-for-sale/property-83074832.html,2,51.424503,-0.171132,Leasehold,52.0,66.0,23.0,0,0,0.0,-7.0,-14.666666666666666,5.0,-16.666666666666664
"Normington Close, Leigham Court Road, London, SW16",http://www.rightmove.co.uk/estate-agents/agent/Marsh-and-Parsons/Streatham-Hill-207812.html,3 bedroom terraced house for sale,83217188,13,650000.0,2019-07-13 07:49:59.696805,http://www.rightmove.co.uk/property-for-sale/property-83217188.html,3,51.4268,-0.115425,Freehold,45.0,54.0,11.0,5,3,0.0,0.0,0.6666666666666679,5.0,13.666666666666668
"Stephendale Road, Fulham, London, SW6 ",http://www.rightmove.co.uk/estate-agents/agent/Aspire/Fulham-South-50242.html,2 bedroom flat for sale,83243612,13,650000.0,2019-07-13 07:49:59.696805,http://www.rightmove.co.uk/property-for-sale/property-83243612.html,2,51.471491,-0.187204,-,48.0,69.0,32.0,0,0,0.0,-3.0,-18.666666666666664,3.25,-18.416666666666664
"Drayton Gardens, London, SW10",http://www.rightmove.co.uk/estate-agents/agent/Winkworth/South-Kensington---Sales-76574.html,2 bedroom apartment for sale,72624412,13,650000.0,2019-07-13 07:49:59.696805,http://www.rightmove.co.uk/property-for-sale/property-72624412.html,2,51.488267,-0.180565,Share of Freehold,42.0,65.0,34.0,0,3,0.0,1.5,-13.333333333333332,2.75,-6.083333333333332
"Flat 4,, 26 John Campbell Road, Dalston, London, N16",http://www.rightmove.co.uk/estate-agents/agent/Stirling-Ackroyd/New-Homes-192272.html,2 bedroom terraced house for sale,72841576,13,650000.0,2019-07-13 07:49:59.696805,http://www.rightmove.co.uk/property-for-sale/property-72841576.html,2,51.549702,-0.076668,Leasehold,26.0,44.0,55.0,0,0,0.0,9.5,7.333333333333334,-5.0,11.833333333333336
"Midholm, Hampstead Garden Suburb",http://www.rightmove.co.uk/estate-agents/agent/Godfrey-And-Barr/Hampstead-Garden-Suburb-56618.html,2 bedroom semi-detached house for sale,71211883,13,650000.0,2019-07-13 07:49:59.696805,http://www.rightmove.co.uk/property-for-sale/property-71211883.html,2,51.587368,-0.186569,Freehold,43.0,60.0,70.0,0,3,0.0,1.0,-6.666666666666666,-12.5,-15.166666666666666
"Roach Road, 
London,
E3",http://www.rightmove.co.uk/developer/branch/Hill-Residential-Limited/Fish-Island-Village-176129.html,2 bedroom property for sale,83158259,13,650000.0,2019-07-13 07:49:59.696805,http://www.rightmove.co.uk/property-for-sale/property-83158259.html,2,51.540316,-0.0239,-,14.0,32.0,43.0,0,0,0.0,10.0,10.0,0.5,20.5
"Elvin Gardens, Wembley, HA9",http://www.rightmove.co.uk/estate-agents/agent/Foxtons/Wembley-166331.html,2 bedroom flat for sale,83181524,13,650000.0,2019-07-13 07:49:59.696805,http://www.rightmove.co.uk/property-for-sale/property-83181524.html,2,51.559841999999996,-0.282208,Leasehold,55.0,73.0,68.0,0,0,0.0,-10.0,-24.0,-11.5,-45.5
"Lockes End, Church End, Walthamstow, London, E17",http://www.rightmove.co.uk/estate-agents/agent/Estates17/Walthamstow-94276.html,3 bedroom terraced house for sale,70132048,13,650000.0,2019-07-13 07:49:59.696805,http://www.rightmove.co.uk/property-for-sale/property-70132048.html,3,51.590175,-0.017343,-,25.0,44.0,57.0,5,0,0.0,10.0,7.333333333333334,-6.0,16.333333333333336
"Haven Lane, Ealing",http://www.rightmove.co.uk/estate-agents/agent/Dexters/Ealing-84791.html,2 bedroom terraced house for sale,72669079,13,650000.0,2019-07-13 07:49:59.696805,http://www.rightmove.co.uk/property-for-sale/property-72669079.html,2,51.517284000000004,-0.299739,-,58.0,75.0,58.0,0,0,0.0,-13.0,-26.666666666666664,-6.5,-46.166666666666664
"Trott Street, Battersea",http://www.rightmove.co.uk/estate-agents/agent/Dexters/Battersea-78410.html,3 bedroom flat for sale,63187401,13,650000.0,2019-07-13 07:49:59.696805,http://www.rightmove.co.uk/property-for-sale/property-63187401.html,3,51.473275,-0.172653,-,42.0,67.0,31.0,5,0,0.0,1.5,-16.0,3.5,-6.0
"River Bank, London, N21",http://www.rightmove.co.uk/estate-agents/agent/Addison-Townsend/Winchmore-Hill-5883.html,3 bedroom semi-detached house for sale,72644887,13,650000.0,2019-07-13 07:49:59.696805,http://www.rightmove.co.uk/property-for-sale/property-72644887.html,3,51.634987,-0.089877,Freehold,34.0,52.0,66.0,5,3,0.0,5.5,2.0,-10.5,5.0
"Dulwich Road, Herne Hill",http://www.rightmove.co.uk/estate-agents/agent/Barnard-Marcus/Clapham-1891.html,2 bedroom ground floor flat for sale,63576312,14,565000.0,2019-07-13 07:50:00.119277,http://www.rightmove.co.uk/property-for-sale/property-63576312.html,2,51.45438,-0.10907,Leasehold,36.0,51.0,16.0,0,0,2.125,4.5,2.666666666666667,5.0,14.291666666666668
"Hampton Apartments, Duke Of Wellington Avenue, Royal Arsenal Riverside, London, SE18",http://www.rightmove.co.uk/estate-agents/agent/Life-Residential/Greenwich--Sales-62256.html,2 bedroom apartment for sale,83156585,14,650000.0,2019-07-13 07:50:00.119277,http://www.rightmove.co.uk/property-for-sale/property-83156585.html,2,51.493489000000004,0.068605,Leasehold,22.0,12.0,39.0,0,0,0.0,10.0,10.0,1.5,21.5
"Courtlands Avenue, Lee, London, SE12",http://www.rightmove.co.uk/estate-agents/agent/Foxtons/Blackheath-75148.html,3 bedroom bungalow for sale,82995038,14,650000.0,2019-07-13 07:50:00.119277,http://www.rightmove.co.uk/property-for-sale/property-82995038.html,3,51.45581,0.02253,Freehold,20.0,25.0,29.0,5,3,0.0,10.0,10.0,4.0,32.0
"Heathfield Road, Croydon, CR0",http://www.rightmove.co.uk/estate-agents/agent/Streets-Ahead/Croydon-Central-18120.html,3 bedroom detached house for sale,83152412,14,650000.0,2019-07-13 07:50:00.119277,http://www.rightmove.co.uk/property-for-sale/property-83152412.html,3,51.366147999999995,-0.097634,Freehold,53.0,55.0,18.0,5,3,0.0,-8.0,0.0,5.0,5.0
"Tierney Road, Tierney Road",http://www.rightmove.co.uk/estate-agents/agent/Dexters/Streatham-100624.html,2 bedroom flat for sale,63520242,14,650000.0,2019-07-13 07:50:00.119277,http://www.rightmove.co.uk/property-for-sale/property-63520242.html,2,51.445101,-0.127667,-,44.0,53.0,17.0,0,0,0.0,0.5,1.333333333333334,5.0,6.833333333333334
"Monet House, Pumping Station Road, London, W4",http://www.rightmove.co.uk/estate-agents/agent/Hamptons-International-Sales/Chiswick-37850.html,2 bedroom flat for sale,83156909,14,650000.0,2019-07-13 07:50:00.119277,http://www.rightmove.co.uk/property-for-sale/property-83156909.html,2,51.483264,-0.252531,Leasehold,51.0,78.0,50.0,0,0,0.0,-6.0,-30.666666666666664,-2.5,-39.166666666666664
"Drayton Park, Islington, N5",http://www.rightmove.co.uk/estate-agents/agent/Life-Residential/North-London-Branch---Sales-51927.html,2 bedroom apartment for sale,63500100,14,650000.0,2019-07-13 07:50:00.119277,http://www.rightmove.co.uk/property-for-sale/property-63500100.html,2,51.55562800000001,-0.105932,Leasehold,34.0,51.0,60.0,0,0,0.0,5.5,2.666666666666667,-7.5,0.6666666666666679
"Spinnaker House, Battersea Reach, SW18",http://www.rightmove.co.uk/estate-agents/agent/HandG-Property/London-92659.html,2 bedroom apartment for sale,63443673,14,650000.0,2019-07-13 07:50:00.119277,http://www.rightmove.co.uk/property-for-sale/property-63443673.html,2,51.463723,-0.18620499999999998,Leasehold,45.0,66.0,29.0,0,0,0.0,0.0,-14.666666666666666,4.0,-10.666666666666666
"Hornsey Lane Gardens, Highgate, N6",http://www.rightmove.co.uk/estate-agents/agent/McHugh-and-Co/London-90947.html,2 bedroom apartment for sale,72613324,14,650000.0,2019-07-13 07:50:00.119277,http://www.rightmove.co.uk/property-for-sale/property-72613324.html,2,51.572897,-0.135482,Leasehold,45.0,62.0,67.0,0,0,0.0,0.0,-9.333333333333332,-11.0,-20.333333333333332
"Copeland Road, Walthamstow",http://www.rightmove.co.uk/estate-agents/agent/The-Stow-Brothers/Walthamstow-114391.html,3 bedroom semi-detached house for sale,72690346,14,650000.0,2019-07-13 07:50:00.119277,http://www.rightmove.co.uk/property-for-sale/property-72690346.html,3,51.578410999999996,-0.011851,-,28.0,46.0,57.0,5,0,0.0,8.5,6.0,-6.0,13.5
"Linden Way, Southgate",http://www.rightmove.co.uk/estate-agents/agent/Kinleigh-Folkard-and-Hayward---Sales/Southgate-55531.html,3 bedroom terraced house for sale,72832495,14,650000.0,2019-07-13 07:50:00.119277,http://www.rightmove.co.uk/property-for-sale/property-72832495.html,3,51.637745,-0.130656,Freehold,37.0,55.0,69.0,5,3,0.0,4.0,0.0,-12.0,0.0
"Putney Park House, 69 Pleasance Road, London, SW15",http://www.rightmove.co.uk/estate-agents/agent/Hamptons-International-Sales/Putney-54986.html,2 bedroom apartment for sale,72865312,14,650000.0,2019-07-13 07:50:00.119277,http://www.rightmove.co.uk/property-for-sale/property-72865312.html,2,51.45991,-0.236956,Share of Freehold,58.0,77.0,42.0,0,3,0.0,-13.0,-29.333333333333332,0.75,-38.58333333333333
"Hastings Terrace, Conway Road, London, N15",http://www.rightmove.co.uk/estate-agents/agent/Winkworth/Harringay-36308.html,3 bedroom end of terrace house for sale,72363874,15,650000.0,2019-07-13 07:50:00.474522,http://www.rightmove.co.uk/property-for-sale/property-72363874.html,3,51.583114,-0.094114,Freehold,35.0,52.0,64.0,5,3,0.0,5.0,2.0,-9.5,5.5
