price,description,address,url,agent_url,id,scrape_time,page_number,beds,latitude,longitude,tenure,travel_time_loc1,travel_time_loc2,bedroom_score,tenure_score,price_score,tt_score1,tt_score2,total_score
550000,2 bedroom apartment for sale,"Mount Nod Road, Streatham, London, SW16",http://www.rightmove.co.uk/property-for-sale/property-72839149.html,http://www.rightmove.co.uk/estate-agents/agent/Pedder/West-Norwood-107375.html,72839149,2019-07-11 22:11:24.029397,1,2,51.436384000000004,-0.11817000000000001,-,43.0,52.0,0,0,2.5,4.8,2.08,9.379999999999999
650000,3 bedroom apartment for sale,"Melbourne Grove, East Dulwich, London, SE22",http://www.rightmove.co.uk/property-for-sale/property-53937606.html,http://www.rightmove.co.uk/estate-agents/agent/Winkworth/Dulwich-47825.html,53937606,2019-07-11 22:11:24.029397,1,3,51.456759999999996,-0.07815,Leasehold,32.0,45.0,5,0,0.0,9.2,6.699999999999999,20.9
650000,3 bedroom flat for sale,"Sarsfeld Road, Balham",http://www.rightmove.co.uk/property-for-sale/property-83101061.html,http://www.rightmove.co.uk/estate-agents/agent/Jacksons-Estate-Agents/Balham-65785.html,83101061,2019-07-11 22:11:24.029397,1,3,51.442085,-0.160478,-,46.0,60.0,5,0,0.0,3.5999999999999996,-4.9,3.6999999999999993
650000,2 bedroom flat for sale,"Balham Grove, Balham, SW12",http://www.rightmove.co.uk/property-for-sale/property-62569203.html,http://www.rightmove.co.uk/estate-agents/agent/Purplebricks/covering-London-151079.html,62569203,2019-07-11 22:11:24.029397,1,2,51.446999,-0.152416,Freehold,43.0,58.0,0,3,0.0,4.8,-2.9000000000000004,4.8999999999999995
650000,3 bedroom flat for sale,"Bird In Bush Road, Peckham, London, SE15",http://www.rightmove.co.uk/property-for-sale/property-61696839.html,http://www.rightmove.co.uk/estate-agents/agent/Foxtons/Peckham-66768.html,61696839,2019-07-11 22:11:24.029397,1,3,51.479578000000004,-0.069357,Leasehold,21.0,40.0,5,0,0.0,10.0,10.0,25.0
650000,2 bedroom flat for sale,"Maxted Road, Peckham, London,SE15",http://www.rightmove.co.uk/property-for-sale/property-62169648.html,http://www.rightmove.co.uk/estate-agents/agent/haart/Dulwich-11440.html,62169648,2019-07-11 22:11:24.029397,1,2,51.465944,-0.072322,Leasehold,28.0,44.0,0,0,0.0,10.0,7.359999999999999,17.36
650000,3 bedroom property for sale,"Lillington Gardens, London, SW1V",http://www.rightmove.co.uk/property-for-sale/property-63590166.html,http://www.rightmove.co.uk/estate-agents/agent/Dauntons/London-95275.html,63590166,2019-07-11 22:11:24.029397,1,3,51.48981,-0.133374,-,33.0,56.0,5,0,0.0,8.8,-0.9000000000000004,12.9
650000,3 bedroom semi-detached house for sale,Darfield Road Brockley SE4,http://www.rightmove.co.uk/property-for-sale/property-63156942.html,http://www.rightmove.co.uk/estate-agents/agent/Peter-James-Estate-Agents/Brockley-169136.html,63156942,2019-07-11 22:11:24.029397,1,3,51.454890999999996,-0.034932,Freehold,28.0,36.0,5,3,0.0,10.0,10.0,28.0
650000,3 bedroom maisonette for sale,"Talfourd Road, London, SE15",http://www.rightmove.co.uk/property-for-sale/property-81328826.html,http://www.rightmove.co.uk/estate-agents/agent/Housesimplecom/Nationwide-29376.html,81328826,2019-07-11 22:11:24.029397,1,3,51.47075200000001,-0.077323,Leasehold,26.0,43.0,5,0,0.0,10.0,8.02,23.02
650000,2 bedroom house for sale,"Choumert Square, Peckham, London",http://www.rightmove.co.uk/property-for-sale/property-69632515.html,http://www.rightmove.co.uk/estate-agents/agent/Leaders-Sales/Forest-Hill-112498.html,69632515,2019-07-11 22:11:24.029397,1,2,51.468369,-0.068851,-,28.0,44.0,0,0,0.0,10.0,7.359999999999999,17.36
650000,2 bedroom flat for sale,"Crystal Palace Road, East Dulwich, SE22",http://www.rightmove.co.uk/property-for-sale/property-83244155.html,http://www.rightmove.co.uk/estate-agents/agent/Mundays/London-143609.html,83244155,2019-07-11 22:11:24.029397,1,2,51.459637,-0.07158099999999999,Leasehold,30.0,43.0,0,0,0.0,10.0,8.02,18.02
650000,3 bedroom terraced house for sale,"Vibart Gardens, London, SW2",http://www.rightmove.co.uk/property-for-sale/property-81832127.html,http://www.rightmove.co.uk/estate-agents/agent/Marsh-and-Parsons/Streatham-Hill-207812.html,81832127,2019-07-11 22:11:24.029397,1,3,51.446121999999995,-0.119842,Freehold,42.0,52.0,5,3,0.0,5.199999999999999,2.08,15.28
650000,3 bedroom maisonette for sale,"Peckham Rye, Peckham, London, SE15",http://www.rightmove.co.uk/property-for-sale/property-62141373.html,http://www.rightmove.co.uk/estate-agents/agent/Pedder/East-Dulwich-21479.html,62141373,2019-07-11 22:11:24.029397,1,3,51.458729999999996,-0.055226,-,29.0,39.0,5,0,0.0,10.0,10.0,25.0
650000,2 bedroom apartment for sale,"4 Gaumont Place, London",http://www.rightmove.co.uk/property-for-sale/property-54079728.html,http://www.rightmove.co.uk/estate-agents/agent/Hastings-International/London-Bridge-14606.html,54079728,2019-07-11 22:11:24.029397,1,2,51.43848,-0.126742,Leasehold,43.0,55.0,0,0,0.0,4.8,0.09999999999999964,4.8999999999999995
650000,3 bedroom maisonette for sale,"Croxted Road , Dulwich, London, SE21",http://www.rightmove.co.uk/property-for-sale/property-82158725.html,http://www.rightmove.co.uk/estate-agents/agent/Pedder/Dulwich-Village-21476.html,82158725,2019-07-11 22:11:24.029397,1,3,51.445842999999996,-0.095748,-,37.0,48.0,5,0,0.0,7.199999999999999,4.72,16.919999999999998
650000,2 bedroom flat for sale,"Windmill Drive, Clapham",http://www.rightmove.co.uk/property-for-sale/property-63229014.html,http://www.rightmove.co.uk/estate-agents/agent/Kinleigh-Folkard-and-Hayward---Sales/Clapham-Common-106615.html,63229014,2019-07-11 22:11:24.029397,1,2,51.457584999999995,-0.14507899999999999,Leasehold,40.0,59.0,0,0,0.0,6.0,-3.9000000000000004,2.0999999999999996
650000,2 bedroom flat for sale,"Marius Road, Balham",http://www.rightmove.co.uk/property-for-sale/property-71817880.html,http://www.rightmove.co.uk/estate-agents/agent/Daniel-James-Estate-Agents/Tooting-114934.html,71817880,2019-07-11 22:11:24.029397,1,2,51.439907,-0.159247,-,46.0,60.0,0,0,0.0,3.5999999999999996,-4.9,-1.3000000000000007
650000,2 bedroom apartment for sale,"Barry Road, London, SE22",http://www.rightmove.co.uk/property-for-sale/property-81730802.html,http://www.rightmove.co.uk/estate-agents/agent/NoFlies/London-94963.html,81730802,2019-07-11 22:11:24.029397,1,2,51.455725,-0.068867,Leasehold,29.0,43.0,0,0,0.0,10.0,8.02,18.02
650000,2 bedroom flat for sale,"Cavendish Road, Balham",http://www.rightmove.co.uk/property-for-sale/property-80425058.html,http://www.rightmove.co.uk/estate-agents/agent/Jacksons-Estate-Agents/Balham-65785.html,80425058,2019-07-11 22:11:24.029397,1,2,51.447277,-0.145589,-,43.0,56.0,0,0,0.0,4.8,-0.9000000000000004,3.8999999999999995
650000,2 bedroom apartment for sale,"York Grove, Peckham, London, SE15",http://www.rightmove.co.uk/property-for-sale/property-82917332.html,http://www.rightmove.co.uk/estate-agents/agent/JT-Clarke-London/London-105238.html,82917332,2019-07-11 22:11:24.029397,1,2,51.474198,-0.054839,-,23.0,37.0,0,0,0.0,10.0,10.0,20.0
650000,3 bedroom house for sale,"Gracefield Gardens, London, SW16",http://www.rightmove.co.uk/property-for-sale/property-81377939.html,http://www.rightmove.co.uk/estate-agents/agent/Marsh-and-Parsons/Streatham-Hill-207812.html,81377939,2019-07-11 22:11:24.029397,1,3,51.431868,-0.122602,Freehold,45.0,54.0,5,3,0.0,4.0,0.7599999999999998,12.76
650000,2 bedroom flat for sale,"Reed Place, Clapham High Street, London, SW4",http://www.rightmove.co.uk/property-for-sale/property-63287652.html,http://www.rightmove.co.uk/estate-agents/agent/Foxtons/Battersea-15966.html,63287652,2019-07-11 22:11:24.029397,1,2,51.461399,-0.131099,Leasehold,37.0,59.0,0,0,0.0,7.199999999999999,-3.9000000000000004,3.299999999999999
650000,2 bedroom flat for sale,"Clapham High Street, Clapham",http://www.rightmove.co.uk/property-for-sale/property-71762539.html,http://www.rightmove.co.uk/estate-agents/agent/Dexters/Clapham-78413.html,71762539,2019-07-11 22:11:24.029397,1,2,51.464046999999994,-0.131422,-,35.0,57.0,0,0,0.0,8.0,-1.9000000000000004,6.1
650000,2 bedroom flat for sale,"Elmfield Mansions, Elmfield Road, LONDON, SW17",http://www.rightmove.co.uk/property-for-sale/property-81951293.html,http://www.rightmove.co.uk/estate-agents/agent/Andrews-Estate-Agents/Balham-13135.html,81951293,2019-07-11 22:11:24.029397,1,2,51.440846,-0.15377000000000002,-,45.0,59.0,0,0,0.0,4.0,-3.9000000000000004,0.09999999999999964
650000,2 bedroom apartment for sale,"The Levers, 2 - 16 Amelia Street, LONDON",http://www.rightmove.co.uk/property-for-sale/property-63272088.html,http://www.rightmove.co.uk/estate-agents/agent/Hastings-International/Rotherhithe-11351.html,63272088,2019-07-11 22:11:24.029397,1,2,51.489127,-0.098688,Leasehold,26.0,47.0,0,0,0.0,10.0,5.38,15.379999999999999
635000,3 bedroom house for sale,"Haynes Lane, Upper Norwood, London, SE19",http://www.rightmove.co.uk/property-for-sale/property-62992077.html,http://www.rightmove.co.uk/estate-agents/agent/Pedder/Crystal-Palace-17108.html,62992077,2019-07-11 22:11:24.344569,2,3,51.41846500000001,-0.083425,-,42.0,50.0,5,0,0.375,5.199999999999999,3.3999999999999995,13.974999999999998
650000,2 bedroom flat for sale,"Elms Road, Clapham",http://www.rightmove.co.uk/property-for-sale/property-71739115.html,http://www.rightmove.co.uk/estate-agents/agent/Dexters/Clapham-78413.html,71739115,2019-07-11 22:11:24.344569,2,2,51.457357,-0.141274,-,39.0,57.0,0,0,0.0,6.4,-1.9000000000000004,4.5
650000,2 bedroom apartment for sale,"Saltoun Road, London, SW2",http://www.rightmove.co.uk/property-for-sale/property-62910045.html,http://www.rightmove.co.uk/estate-agents/agent/Savills/Northcote-Road-100852.html,62910045,2019-07-11 22:11:24.344569,2,2,51.460645,-0.11350199999999999,Leasehold,36.0,54.0,0,0,0.0,7.6,0.7599999999999998,8.36
650000,2 bedroom flat for sale,"Bassano Street, Park House, East Dulwich, London, SE22",http://www.rightmove.co.uk/property-for-sale/property-72783724.html,http://www.rightmove.co.uk/estate-agents/agent/Truepennys-Property-Consultants/London-93562.html,72783724,2019-07-11 22:11:24.344569,2,2,51.456487,-0.076895,Share of Freehold,32.0,46.0,0,3,0.0,9.2,6.04,18.24
650000,2 bedroom flat for sale,"Latchmere Road, SW11",http://www.rightmove.co.uk/property-for-sale/property-72150952.html,http://www.rightmove.co.uk/estate-agents/agent/Douglas-and-Gordon/Battersea-Park-34265.html,72150952,2019-07-11 22:11:24.344569,2,2,51.46617,-0.162167,Share of Freehold,42.0,62.0,0,3,0.0,5.199999999999999,-6.9,1.299999999999999
650000,3 bedroom flat for sale,"Eastlake Road, London, SE5",http://www.rightmove.co.uk/property-for-sale/property-62856648.html,http://www.rightmove.co.uk/estate-agents/agent/Purplebricks/covering-London-151079.html,62856648,2019-07-11 22:11:24.344569,2,3,51.46836,-0.1004,Leasehold,32.0,49.0,5,0,0.0,9.2,4.06,18.259999999999998
650000,3 bedroom house for sale,"Rockells Place, East Dulwich, London, SE22",http://www.rightmove.co.uk/property-for-sale/property-82640186.html,http://www.rightmove.co.uk/estate-agents/agent/Pedder/East-Dulwich-21479.html,82640186,2019-07-11 22:11:24.344569,2,3,51.451264,-0.060131,-,31.0,40.0,5,0,0.0,9.6,10.0,24.6
650000,2 bedroom penthouse for sale,"Mary Datchelor House, Camberwell Grove, Camberwell, SE5",http://www.rightmove.co.uk/property-for-sale/property-63416587.html,http://www.rightmove.co.uk/estate-agents/agent/Roy-Brooks/London-7453.html,63416587,2019-07-11 22:11:24.344569,2,2,51.473279,-0.089192,Leasehold,26.0,44.0,0,0,0.0,10.0,7.359999999999999,17.36
650000,3 bedroom apartment for sale,"Gipsy Road , Upper Norwood, London, SE27",http://www.rightmove.co.uk/property-for-sale/property-62992488.html,http://www.rightmove.co.uk/estate-agents/agent/Pedder/Crystal-Palace-17108.html,62992488,2019-07-11 22:11:24.344569,2,3,51.427456,-0.091093,-,41.0,49.0,5,0,0.0,5.6,4.06,14.66
650000,3 bedroom terraced house for sale,"Howbury Road, Nunhead",http://www.rightmove.co.uk/property-for-sale/property-72587836.html,http://www.rightmove.co.uk/estate-agents/agent/Kinleigh-Folkard-and-Hayward---Sales/Peckham-Rye-55519.html,72587836,2019-07-11 22:11:24.344569,2,3,51.465209,-0.055077,Freehold,26.0,38.0,5,3,0.0,10.0,10.0,28.0
650000,2 bedroom flat for sale,"Elms Road, Clapham, London, SW4 ",http://www.rightmove.co.uk/property-for-sale/property-71707375.html,http://www.rightmove.co.uk/estate-agents/agent/Aspire/South-Clapham-45003.html,71707375,2019-07-11 22:11:24.344569,2,2,51.457358,-0.141199,-,39.0,57.0,0,0,0.0,6.4,-1.9000000000000004,4.5
650000,2 bedroom flat for sale,"Chelsham Road, London, SW4",http://www.rightmove.co.uk/property-for-sale/property-62045469.html,http://www.rightmove.co.uk/estate-agents/agent/Hamptons-International-Sales/Clapham-37877.html,62045469,2019-07-11 22:11:24.344569,2,2,51.46856500000001,-0.129199,Share of Freehold,35.0,56.0,0,3,0.0,8.0,-0.9000000000000004,10.1
650000,3 bedroom semi-detached house for sale,"Knollys Road, Streatham, SW16",http://www.rightmove.co.uk/property-for-sale/property-62430741.html,http://www.rightmove.co.uk/estate-agents/agent/Purplebricks/covering-London-151079.html,62430741,2019-07-11 22:11:24.344569,2,3,51.43541,-0.111015,Freehold,43.0,51.0,5,3,0.0,4.8,2.7399999999999993,15.54
650000,2 bedroom maisonette for sale,"Maxted Road, Peckham, London, SE15",http://www.rightmove.co.uk/property-for-sale/property-61974549.html,http://www.rightmove.co.uk/estate-agents/agent/Pedder/East-Dulwich-21479.html,61974549,2019-07-11 22:11:24.344569,2,2,51.465953999999996,-0.072308,-,28.0,44.0,0,0,0.0,10.0,7.359999999999999,17.36
650000,2 bedroom flat for sale,"2 Park House, Bassano Street, East Dulwich, SE22",http://www.rightmove.co.uk/property-for-sale/property-72784231.html,http://www.rightmove.co.uk/estate-agents/agent/Truepennys-Property-Consultants/Dulwich-49874.html,72784231,2019-07-11 22:11:24.344569,2,2,51.456487,-0.076895,Share of Freehold,32.0,46.0,0,3,0.0,9.2,6.04,18.24
650000,3 bedroom terraced house for sale,"Normington Close, Leigham Court Road, London, SW16",http://www.rightmove.co.uk/property-for-sale/property-83217188.html,http://www.rightmove.co.uk/estate-agents/agent/Marsh-and-Parsons/Streatham-Hill-207812.html,83217188,2019-07-11 22:11:24.344569,2,3,51.4268,-0.115425,Freehold,46.0,54.0,5,3,0.0,3.5999999999999996,0.7599999999999998,12.36
650000,2 bedroom flat for sale,"Stane Grove, Stockwell",http://www.rightmove.co.uk/property-for-sale/property-72290911.html,http://www.rightmove.co.uk/estate-agents/agent/Dexters/Clapham-78413.html,72290911,2019-07-11 22:11:24.344569,2,2,51.468527,-0.12853900000000001,-,34.0,56.0,0,0,0.0,8.4,-0.9000000000000004,7.5
650000,3 bedroom flat for sale,"Tierney Road, Streatham Hill",http://www.rightmove.co.uk/property-for-sale/property-61870719.html,http://www.rightmove.co.uk/estate-agents/agent/Dexters/Streatham-100624.html,61870719,2019-07-11 22:11:24.344569,2,3,51.444824,-0.128074,-,44.0,53.0,5,0,0.0,4.3999999999999995,1.42,10.819999999999999
650000,2 bedroom flat for sale,"Walmer Castle Court, Peckham Rye, London, SE15",http://www.rightmove.co.uk/property-for-sale/property-82572005.html,http://www.rightmove.co.uk/estate-agents/agent/haart/Camberwell-Green-53233.html,82572005,2019-07-11 22:11:24.344569,2,2,51.47401,-0.076158,Freehold,25.0,42.0,0,3,0.0,10.0,8.68,21.68
550000,3 bedroom maisonette for sale,"Leigham Court Road, Streatham, London, SW16",http://www.rightmove.co.uk/property-for-sale/property-62312142.html,http://www.rightmove.co.uk/estate-agents/agent/Foxtons/Streatham-71419.html,62312142,2019-07-11 22:11:24.676126,3,3,51.432956,-0.116954,Leasehold,44.0,52.0,5,0,2.5,4.3999999999999995,2.08,13.979999999999999
650000,3 bedroom flat for sale,"Leigham Court Road, Streatham",http://www.rightmove.co.uk/property-for-sale/property-63318138.html,http://www.rightmove.co.uk/estate-agents/agent/Dexters/Streatham-100624.html,63318138,2019-07-11 22:11:24.676126,3,3,51.433184000000004,-0.11724100000000001,-,43.0,52.0,5,0,0.0,4.8,2.08,11.88
650000,3 bedroom end of terrace house for sale,Holbeck Row Peckham SE15,http://www.rightmove.co.uk/property-for-sale/property-61788864.html,http://www.rightmove.co.uk/estate-agents/agent/Acorn/Peckham-Rye-50692.html,61788864,2019-07-11 22:11:24.676126,3,3,51.477981,-0.06605499999999999,Freehold,21.0,39.0,5,3,0.0,10.0,10.0,28.0
650000,3 bedroom flat for sale,"Victoria Rise, Clapham, London, SW4",http://www.rightmove.co.uk/property-for-sale/property-74511131.html,http://www.rightmove.co.uk/estate-agents/agent/Chestertons-Estate-Agents/Battersea-Rise-48862.html,74511131,2019-07-11 22:11:24.676126,3,3,51.465379999999996,-0.148362,Share of Freehold,41.0,60.0,5,3,0.0,5.6,-4.9,8.7
650000,2 bedroom flat for sale,"16 Balham Grove, Balham, SW12",http://www.rightmove.co.uk/property-for-sale/property-62556132.html,http://www.rightmove.co.uk/estate-agents/agent/Purplebricks/covering-London-151079.html,62556132,2019-07-11 22:11:24.676126,3,2,51.446348,-0.151082,Leasehold,43.0,57.0,0,0,0.0,4.8,-1.9000000000000004,2.8999999999999995
650000,2 bedroom flat for sale,"St. Saviour's Road, Brixton",http://www.rightmove.co.uk/property-for-sale/property-71564545.html,http://www.rightmove.co.uk/estate-agents/agent/Kinleigh-Folkard-and-Hayward---Sales/Clapham-55423.html,71564545,2019-07-11 22:11:24.676126,3,2,51.454415000000004,-0.121027,Share of Freehold,39.0,55.0,0,3,0.0,6.4,0.09999999999999964,9.5
650000,2 bedroom flat for sale,"Cautley Avenue, Clapham",http://www.rightmove.co.uk/property-for-sale/property-71551660.html,http://www.rightmove.co.uk/estate-agents/agent/Dexters/Clapham-78413.html,71551660,2019-07-11 22:11:24.676126,3,2,51.45480300000001,-0.142257,-,40.0,56.0,0,0,0.0,6.0,-0.9000000000000004,5.1
650000,2 bedroom flat for sale,"Dorothy Road, SW11",http://www.rightmove.co.uk/property-for-sale/property-72153091.html,http://www.rightmove.co.uk/estate-agents/agent/Douglas-and-Gordon/Battersea-Park-34265.html,72153091,2019-07-11 22:11:24.676126,3,2,51.466393,-0.163908,Leasehold,43.0,62.0,0,0,0.0,4.8,-6.9,-2.1000000000000005
649999,2 bedroom flat for sale,"Culverden Road, Balham, London, SW12",http://www.rightmove.co.uk/property-for-sale/property-82590077.html,http://www.rightmove.co.uk/estate-agents/agent/James-Pendleton/Clapham-South-Abbeville-Village-and-Balham-45738.html,82590077,2019-07-11 22:11:24.676126,3,2,51.437462,-0.142931,Share of Freehold,47.0,58.0,0,3,2.5e-05,3.1999999999999993,-2.9000000000000004,3.300024999999999
649999,3 bedroom end of terrace house for sale,"Railton Road, Herne Hill",http://www.rightmove.co.uk/property-for-sale/property-72122539.html,http://www.rightmove.co.uk/estate-agents/agent/Kinleigh-Folkard-and-Hayward---Sales/Dulwich-Village-55435.html,72122539,2019-07-11 22:11:24.676126,3,3,51.455324,-0.104868,Freehold,36.0,51.0,5,3,2.5e-05,7.6,2.7399999999999993,18.340025
649999,3 bedroom house for sale,"Railton Road, Herne Hill, London, SE24",http://www.rightmove.co.uk/property-for-sale/property-61975137.html,http://www.rightmove.co.uk/estate-agents/agent/Pedder/Herne-Hill-82748.html,61975137,2019-07-11 22:11:24.676126,3,3,51.455334,-0.104853,-,36.0,51.0,5,0,2.5e-05,7.6,2.7399999999999993,15.340024999999997
649950,2 bedroom house boat for sale,"Nine Elms Pier, Tideway Walk, London",http://www.rightmove.co.uk/property-for-sale/property-79228253.html,http://www.rightmove.co.uk/estate-agents/agent/Waterview/Thames-Ditton-84869.html,79228253,2019-07-11 22:11:24.676126,3,2,51.482842,-0.13858199999999998,-,34.0,57.0,0,0,0.00125,8.4,-1.9000000000000004,6.501250000000001
649950,2 bedroom house boat for sale,NINE ELMS PIER LONDON ,http://www.rightmove.co.uk/property-for-sale/property-73190039.html,http://www.rightmove.co.uk/estate-agents/agent/Warren-Property-Matters/WINDSOR-83417.html,73190039,2019-07-11 22:11:24.676126,3,2,51.482842,-0.13858199999999998,Freehold,34.0,57.0,0,3,0.00125,8.4,-1.9000000000000004,9.50125
649950,2 bedroom property for sale,"Nine Elms Pier, Tideway Walk, Kirtling Street, London, SW11",http://www.rightmove.co.uk/property-for-sale/property-66881584.html,http://www.rightmove.co.uk/estate-agents/agent/James-Pendleton/Battersea-Park-and-Nine-Elms-86696.html,66881584,2019-07-11 22:11:24.676126,3,2,51.482599,-0.13743,Leasehold,33.0,56.0,0,0,0.00125,8.8,-0.9000000000000004,7.901250000000001
649950,2 bedroom flat for sale,"Gautrey Road, Lower Nunhead",http://www.rightmove.co.uk/property-for-sale/property-72176671.html,http://www.rightmove.co.uk/estate-agents/agent/Kinleigh-Folkard-and-Hayward---Sales/Peckham-Rye-55519.html,72176671,2019-07-11 22:11:24.676126,3,2,51.47020300000001,-0.052561000000000004,Freehold,24.0,38.0,0,3,0.00125,10.0,10.0,23.00125
649950,2 bedroom apartment for sale,"Queenstown Road, Battersea, London, SW8",http://www.rightmove.co.uk/property-for-sale/property-55129332.html,http://www.rightmove.co.uk/estate-agents/agent/JOHNSandCO-New-Homes/London-190682.html,55129332,2019-07-11 22:11:24.676126,3,2,51.472752,-0.148784,Leasehold,38.0,60.0,0,0,0.00125,6.8,-4.9,1.9012499999999992
649950,3 bedroom terraced house for sale,"Asylum Road, Peckham, London, SE15",http://www.rightmove.co.uk/property-for-sale/property-80861918.html,http://www.rightmove.co.uk/estate-agents/agent/JT-Clarke-London/London-105238.html,80861918,2019-07-11 22:11:24.676126,3,3,51.475784999999995,-0.05837100000000001,-,21.0,38.0,5,0,0.00125,10.0,10.0,25.00125
649950,3 bedroom flat for sale,"Victoria Rise, Clapham, London, SW4",http://www.rightmove.co.uk/property-for-sale/property-58268121.html,http://www.rightmove.co.uk/estate-agents/agent/Foxtons/Battersea-15966.html,58268121,2019-07-11 22:11:24.676126,3,3,51.465165,-0.148551,Share of Freehold,41.0,60.0,5,3,0.00125,5.6,-4.9,8.70125
600000,2 bedroom flat for sale,"Northbourne Road, Clapham, SW4",http://www.rightmove.co.uk/property-for-sale/property-71728852.html,http://www.rightmove.co.uk/estate-agents/agent/Portico/Clapham-70256.html,71728852,2019-07-11 22:11:24.974197,4,2,51.459191,-0.132922,Leasehold,39.0,59.0,0,0,1.25,6.4,-3.9000000000000004,3.75
649950,2 bedroom house boat for sale,"Nine Elms Pier, Vauxhall SW8",http://www.rightmove.co.uk/property-for-sale/property-73095908.html,http://www.rightmove.co.uk/estate-agents/agent/riverhomes/Central-London-office-145517.html,73095908,2019-07-11 22:11:24.974197,4,2,51.482842,-0.13858199999999998,-,34.0,57.0,0,0,0.00125,8.4,-1.9000000000000004,6.501250000000001
649950,3 bedroom flat for sale,"Stanthorpe Road, Streatham, London, SW16",http://www.rightmove.co.uk/property-for-sale/property-62961951.html,http://www.rightmove.co.uk/estate-agents/agent/Chestertons-Estate-Agents/Wandsworth-145460.html,62961951,2019-07-11 22:11:24.974197,4,3,51.427556,-0.129382,Leasehold,48.0,56.0,5,0,0.00125,2.8,-0.9000000000000004,6.901249999999999
649950,2 bedroom flat for sale,"Santley Street, Clapham, London, SW4",http://www.rightmove.co.uk/property-for-sale/property-83085599.html,http://www.rightmove.co.uk/estate-agents/agent/James-Pendleton/Clapham-Common-and-Brixton-45744.html,83085599,2019-07-11 22:11:24.974197,4,2,51.461662,-0.122079,Share of Freehold,38.0,57.0,0,3,0.00125,6.8,-1.9000000000000004,7.901249999999999
649950,2 bedroom flat for sale,"Fontenoy Road, SW12",http://www.rightmove.co.uk/property-for-sale/property-71619319.html,http://www.rightmove.co.uk/estate-agents/agent/Douglas-and-Gordon/Balham-34241.html,71619319,2019-07-11 22:11:24.974197,4,2,51.438049,-0.144835,Leasehold,46.0,58.0,0,0,0.00125,3.5999999999999996,-2.9000000000000004,0.7012499999999995
645000,2 bedroom apartment for sale,"The Levers, 2 - 16 Amelia Street, LONDON",http://www.rightmove.co.uk/property-for-sale/property-62058906.html,http://www.rightmove.co.uk/estate-agents/agent/Hastings-International/Rotherhithe-11351.html,62058906,2019-07-11 22:11:24.974197,4,2,51.489127,-0.098688,Leasehold,26.0,47.0,0,0,0.125,10.0,5.38,15.504999999999999
645000,3 bedroom semi-detached house for sale,"Massingberd Way, London, SW17",http://www.rightmove.co.uk/property-for-sale/property-70076383.html,http://www.rightmove.co.uk/estate-agents/agent/Goodfellows/Mitcham-8971.html,70076383,2019-07-11 22:11:24.974197,4,3,51.428379,-0.152652,-,50.0,61.0,5,0,0.125,2.0,-5.9,1.2249999999999996
645000,2 bedroom apartment for sale,"The Levers, 2 - 16 Amelia Street, LONDON",http://www.rightmove.co.uk/property-for-sale/property-62058894.html,http://www.rightmove.co.uk/estate-agents/agent/Hastings-International/Rotherhithe-11351.html,62058894,2019-07-11 22:11:24.974197,4,2,51.489127,-0.098688,Leasehold,26.0,47.0,0,0,0.125,10.0,5.38,15.504999999999999
645000,2 bedroom apartment for sale,"The Levers, 2-16 Amelia Street, London ***STAMP DUTY INCENTIVE AVAILABLE***",http://www.rightmove.co.uk/property-for-sale/property-61571121.html,http://www.rightmove.co.uk/estate-agents/agent/Hastings-International/London-Bridge-14606.html,61571121,2019-07-11 22:11:24.974197,4,2,51.490021,-0.097255,Leasehold,25.0,47.0,0,0,0.125,10.0,5.38,15.504999999999999
645000,2 bedroom apartment for sale,"The Levers, 2-16 Amelia Street, London ***STAMP DUTY INCENTIVE AVAILABLE***",http://www.rightmove.co.uk/property-for-sale/property-61551852.html,http://www.rightmove.co.uk/estate-agents/agent/Hastings-International/London-Bridge-14606.html,61551852,2019-07-11 22:11:24.974197,4,2,51.490021,-0.097255,Leasehold,25.0,47.0,0,0,0.125,10.0,5.38,15.504999999999999
645000,2 bedroom apartment for sale,"The Levers, 2 - 16 Amelia Street, LONDON",http://www.rightmove.co.uk/property-for-sale/property-62043081.html,http://www.rightmove.co.uk/estate-agents/agent/Hastings-International/Rotherhithe-11351.html,62043081,2019-07-11 22:11:24.974197,4,2,51.489127,-0.098688,Leasehold,26.0,47.0,0,0,0.125,10.0,5.38,15.504999999999999
645000,2 bedroom apartment for sale,"The Levers, 2-16 Amelia Street, London ***STAMP DUTY INCENTIVE AVAILABLE***",http://www.rightmove.co.uk/property-for-sale/property-61551843.html,http://www.rightmove.co.uk/estate-agents/agent/Hastings-International/London-Bridge-14606.html,61551843,2019-07-11 22:11:24.974197,4,2,51.490021,-0.097255,Leasehold,25.0,47.0,0,0,0.125,10.0,5.38,15.504999999999999
645000,2 bedroom flat for sale,"Albert Palace Mansions, Lurline Gardens, Battersea, London, SW11",http://www.rightmove.co.uk/property-for-sale/property-55938900.html,http://www.rightmove.co.uk/estate-agents/agent/John-D-Wood-Sales/Battersea-667.html,55938900,2019-07-11 22:11:24.974197,4,2,51.476689,-0.150453,Leasehold,37.0,60.0,0,0,0.125,7.199999999999999,-4.9,2.424999999999999
645000,3 bedroom apartment for sale,"Somerton Road, Peckham Rye, London, SE15",http://www.rightmove.co.uk/property-for-sale/property-62881179.html,http://www.rightmove.co.uk/estate-agents/agent/Winkworth/Dulwich-47825.html,62881179,2019-07-11 22:11:24.974197,4,3,51.46091,-0.059924,Leasehold,28.0,41.0,5,0,0.125,10.0,9.34,24.465
645000,3 bedroom semi-detached house for sale,"Massingberd Way, London, SW17",http://www.rightmove.co.uk/property-for-sale/property-73665524.html,http://www.rightmove.co.uk/estate-agents/agent/Hamptons-International-Sales/Balham-98360.html,73665524,2019-07-11 22:11:24.974197,4,3,51.42827,-0.152524,Freehold,50.0,61.0,5,3,0.125,2.0,-5.9,4.225
645000,2 bedroom apartment for sale,"The Levers, 2-16 Amelia Street, London ***STAMP DUTY INCENTIVE AVAILABLE***",http://www.rightmove.co.uk/property-for-sale/property-61571127.html,http://www.rightmove.co.uk/estate-agents/agent/Hastings-International/London-Bridge-14606.html,61571127,2019-07-11 22:11:24.974197,4,2,51.490021,-0.097255,Leasehold,25.0,47.0,0,0,0.125,10.0,5.38,15.504999999999999
644950,2 bedroom ground floor flat for sale,"Oakhurst Grove, London, SE22",http://www.rightmove.co.uk/property-for-sale/property-81329543.html,http://www.rightmove.co.uk/estate-agents/agent/NoFlies/London-94963.html,81329543,2019-07-11 22:11:24.974197,4,2,51.460233,-0.06954,Share of Freehold,29.0,43.0,0,3,0.12625,10.0,8.02,21.146250000000002
642000,2 bedroom flat for sale,"The Green in Camberwell, SE5",http://www.rightmove.co.uk/property-for-sale/property-61522763.html,http://www.rightmove.co.uk/estate-agents/agent/Felicity-J-Lord/Shad-Thames-11486.html,61522763,2019-07-11 22:11:24.974197,4,2,51.474564,-0.093559,Leasehold,28.0,46.0,0,0,0.2,10.0,6.04,16.24
640000,2 bedroom apartment for sale,"Admiral House, St George Wharf, London, SW8",http://www.rightmove.co.uk/property-for-sale/property-61889724.html,http://www.rightmove.co.uk/estate-agents/agent/Life-Residential/Nine-Elms-Riverside-Office---Sales-54919.html,61889724,2019-07-11 22:11:24.974197,4,2,51.485742,-0.124892,Leasehold,30.0,55.0,0,0,0.25,10.0,0.09999999999999964,10.35
640000,2 bedroom apartment for sale,"The Levers, 2-16 Amelia Street, London ***STAMP DUTY INCENTIVE AVAILABLE***",http://www.rightmove.co.uk/property-for-sale/property-59469264.html,http://www.rightmove.co.uk/estate-agents/agent/Hastings-International/London-Bridge-14606.html,59469264,2019-07-11 22:11:24.974197,4,2,51.490021,-0.097255,Leasehold,25.0,47.0,0,0,0.25,10.0,5.38,15.629999999999999
640000,2 bedroom apartment for sale,"The Levers, 2-16 Amelia Street, London ***STAMP DUTY INCENTIVE AVAILABLE***",http://www.rightmove.co.uk/property-for-sale/property-59469312.html,http://www.rightmove.co.uk/estate-agents/agent/Hastings-International/London-Bridge-14606.html,59469312,2019-07-11 22:11:24.974197,4,2,51.490021,-0.097255,Leasehold,25.0,47.0,0,0,0.25,10.0,5.38,15.629999999999999
640000,2 bedroom apartment for sale,"Sarsfeld Road, London, SW12",http://www.rightmove.co.uk/property-for-sale/property-61664409.html,http://www.rightmove.co.uk/estate-agents/agent/Marsh-and-Parsons/Balham-and-Clapham-South-22320.html,61664409,2019-07-11 22:11:24.974197,4,2,51.4429,-0.1591,Share of Freehold,46.0,60.0,0,3,0.25,3.5999999999999996,-4.9,1.9499999999999993
569000,2 bedroom apartment for sale,"2 Crystal Palace Park Road,
London,
SE26 6UH",http://www.rightmove.co.uk/property-for-sale/property-83030330.html,http://www.rightmove.co.uk/developer/branch/Vanquish-Iconic/Crib-Apartments-Crystal-Palace-Park-206606.html,83030330,2019-07-11 22:11:25.349525,5,2,51.423246,-0.062469000000000004,Share of Freehold,38.0,44.0,0,3,2.025,6.8,7.359999999999999,19.185
640000,3 bedroom flat for sale,"Clapham Park Road, Clapham",http://www.rightmove.co.uk/property-for-sale/property-68466889.html,http://www.rightmove.co.uk/estate-agents/agent/Dexters/Clapham-78413.html,68466889,2019-07-11 22:11:25.349525,5,3,51.459309999999995,-0.134128,-,38.0,59.0,5,0,0.25,6.8,-3.9000000000000004,8.15
640000,3 bedroom apartment for sale,"Camberwell On The Green, Camberwell Green, SE5",http://www.rightmove.co.uk/property-for-sale/property-53212023.html,http://www.rightmove.co.uk/estate-agents/agent/Marsh-and-Parsons/New-Homes-33948.html,53212023,2019-07-11 22:11:25.349525,5,3,51.475026,-0.093762,Leasehold,28.0,46.0,5,0,0.25,10.0,6.04,21.29
640000,2 bedroom apartment for sale,"The Levers, 2 - 16 Amelia Street, LONDON",http://www.rightmove.co.uk/property-for-sale/property-62058774.html,http://www.rightmove.co.uk/estate-agents/agent/Hastings-International/Rotherhithe-11351.html,62058774,2019-07-11 22:11:25.349525,5,2,51.489127,-0.098688,Leasehold,26.0,47.0,0,0,0.25,10.0,5.38,15.629999999999999
639950,2 bedroom maisonette for sale,"Bedford Hill, Balham",http://www.rightmove.co.uk/property-for-sale/property-71398477.html,http://www.rightmove.co.uk/estate-agents/agent/Kinleigh-Folkard-and-Hayward---Sales/Balham-55339.html,71398477,2019-07-11 22:11:25.349525,5,2,51.43864600000001,-0.147285,Leasehold,46.0,58.0,0,0,0.25125,3.5999999999999996,-2.9000000000000004,0.951249999999999
639950,3 bedroom maisonette for sale,"Croxted Road , Dulwich, London, SE21",http://www.rightmove.co.uk/property-for-sale/property-61974063.html,http://www.rightmove.co.uk/estate-agents/agent/Pedder/Dulwich-Village-21476.html,61974063,2019-07-11 22:11:25.349525,5,3,51.445842999999996,-0.095748,-,37.0,48.0,5,0,0.25125,7.199999999999999,4.72,17.171249999999997
635000,3 bedroom house for sale,"Westcote Road, Westcote Road",http://www.rightmove.co.uk/property-for-sale/property-63392820.html,http://www.rightmove.co.uk/estate-agents/agent/Dexters/New-Homes-Mayfair-187892.html,63392820,2019-07-11 22:11:25.349525,5,3,51.423460999999996,-0.140769,-,51.0,60.0,5,0,0.375,1.5999999999999996,-4.9,2.0749999999999993
635000,2 bedroom apartment for sale,"The Levers, 2-16 Amelia Street, London ***STAMP DUTY INCENTIVE AVAILABLE***",http://www.rightmove.co.uk/property-for-sale/property-61574196.html,http://www.rightmove.co.uk/estate-agents/agent/Hastings-International/London-Bridge-14606.html,61574196,2019-07-11 22:11:25.349525,5,2,51.490021,-0.097255,Leasehold,25.0,47.0,0,0,0.375,10.0,5.38,15.754999999999999
635000,2 bedroom flat for sale,"Hanover Park, Peckham, SE15",http://www.rightmove.co.uk/property-for-sale/property-82997714.html,http://www.rightmove.co.uk/estate-agents/agent/Mundays/London-143609.html,82997714,2019-07-11 22:11:25.349525,5,2,51.472064,-0.067169,Share of Freehold,24.0,39.0,0,3,0.375,10.0,10.0,23.375
635000,3 bedroom apartment for sale,"Longton Grove, Sydenham, SE26",http://www.rightmove.co.uk/property-for-sale/property-63162681.html,http://www.rightmove.co.uk/estate-agents/agent/Pedder/Sydenham-77653.html,63162681,2019-07-11 22:11:25.349525,5,3,51.429429999999996,-0.06163200000000001,-,38.0,42.0,5,0,0.375,6.8,8.68,20.855
635000,3 bedroom apartment for sale,"Grove Vale, London, SE22",http://www.rightmove.co.uk/property-for-sale/property-63030690.html,http://www.rightmove.co.uk/estate-agents/agent/Kalmars-Residential/Shad-Thames-89983.html,63030690,2019-07-11 22:11:25.349525,5,3,51.461568,-0.080154,-,30.0,44.0,5,0,0.375,10.0,7.359999999999999,22.735
635000,3 bedroom flat for sale,"Grove Vale, East Dulwich, SE22",http://www.rightmove.co.uk/property-for-sale/property-82023725.html,http://www.rightmove.co.uk/estate-agents/agent/Mundays/London-143609.html,82023725,2019-07-11 22:11:25.349525,5,3,51.46098,-0.076706,Leasehold,30.0,43.0,5,0,0.375,10.0,8.02,23.395
635000,2 bedroom flat for sale,"Albany Road, London SE5",http://www.rightmove.co.uk/property-for-sale/property-83059418.html,http://www.rightmove.co.uk/estate-agents/agent/ludlowthompson/Kennington-Oval---Sales-77465.html,83059418,2019-07-11 22:11:25.349525,5,2,51.482919,-0.093067,-,25.0,44.0,0,0,0.375,10.0,7.359999999999999,17.735
635000,2 bedroom apartment for sale,"The Levers, 2-16 Amelia Street, London ***STAMP DUTY INCENTIVE AVAILABLE***",http://www.rightmove.co.uk/property-for-sale/property-61551810.html,http://www.rightmove.co.uk/estate-agents/agent/Hastings-International/London-Bridge-14606.html,61551810,2019-07-11 22:11:25.349525,5,2,51.490021,-0.097255,Leasehold,25.0,47.0,0,0,0.375,10.0,5.38,15.754999999999999
635000,2 bedroom terraced house for sale,"Choumert Square, Peckham Rye, SE15",http://www.rightmove.co.uk/property-for-sale/property-82655996.html,http://www.rightmove.co.uk/estate-agents/agent/Mundays/London-143609.html,82655996,2019-07-11 22:11:25.349525,5,2,51.468222999999995,-0.068771,Freehold,28.0,44.0,0,3,0.375,10.0,7.359999999999999,20.735
635000,3 bedroom apartment for sale,"Bloom House, 389 Rotherhithe New Road, Bermondsey, London, SE16",http://www.rightmove.co.uk/property-for-sale/property-61681893.html,http://www.rightmove.co.uk/estate-agents/agent/Life-Residential/Tower-Bridge---Sales-107911.html,61681893,2019-07-11 22:11:25.349525,5,3,51.485355,-0.064601,Leasehold,17.0,37.0,5,0,0.375,10.0,10.0,25.375
635000,2 bedroom flat for sale,"Talfourd Road, Peckham Rye",http://www.rightmove.co.uk/property-for-sale/property-72864499.html,http://www.rightmove.co.uk/estate-agents/agent/Kinleigh-Folkard-and-Hayward---Sales/Peckham-Rye-55519.html,72864499,2019-07-11 22:11:25.349525,5,2,51.472142,-0.077389,Share of Freehold,25.0,42.0,0,3,0.375,10.0,8.68,22.055
635000,2 bedroom mews house for sale,"Linnet Mews, SW12",http://www.rightmove.co.uk/property-for-sale/property-61073208.html,http://www.rightmove.co.uk/estate-agents/agent/Douglas-and-Gordon/Balham-34241.html,61073208,2019-07-11 22:11:25.349525,5,2,51.448921,-0.157333,Freehold,44.0,60.0,0,3,0.375,4.3999999999999995,-4.9,2.874999999999999
635000,2 bedroom apartment for sale,"The Levers, 2 - 16 Amelia Street, LONDON",http://www.rightmove.co.uk/property-for-sale/property-57238095.html,http://www.rightmove.co.uk/estate-agents/agent/Hastings-International/Rotherhithe-11351.html,57238095,2019-07-11 22:11:25.349525,5,2,51.489127,-0.098688,Leasehold,26.0,47.0,0,0,0.375,10.0,5.38,15.754999999999999
635000,2 bedroom apartment for sale,"The Levers, 2-16 Amelia Street, London ***STAMP DUTY INCENTIVE AVAILABLE***",http://www.rightmove.co.uk/property-for-sale/property-61574202.html,http://www.rightmove.co.uk/estate-agents/agent/Hastings-International/London-Bridge-14606.html,61574202,2019-07-11 22:11:25.349525,5,2,51.490021,-0.097255,Leasehold,25.0,47.0,0,0,0.375,10.0,5.38,15.754999999999999
635000,3 bedroom terraced house for sale,"Kendal Close, London SW9",http://www.rightmove.co.uk/property-for-sale/property-83114591.html,http://www.rightmove.co.uk/estate-agents/agent/ludlowthompson/Kennington-Oval---Sales-77465.html,83114591,2019-07-11 22:11:25.349525,5,3,51.478726,-0.10620299999999999,-,31.0,50.0,5,0,0.375,9.6,3.3999999999999995,18.375
635000,3 bedroom flat for sale,"Drewstead Road, Streatham",http://www.rightmove.co.uk/property-for-sale/property-82368953.html,http://www.rightmove.co.uk/estate-agents/agent/Jacksons-Estate-Agents/Streatham-52415.html,82368953,2019-07-11 22:11:25.349525,5,3,51.438439,-0.12985,-,44.0,55.0,5,0,0.375,4.3999999999999995,0.09999999999999964,9.874999999999998
635000,2 bedroom apartment for sale,"The Levers, 2-16 Amelia Street, London ***STAMP DUTY INCENTIVE AVAILABLE***",http://www.rightmove.co.uk/property-for-sale/property-61551822.html,http://www.rightmove.co.uk/estate-agents/agent/Hastings-International/London-Bridge-14606.html,61551822,2019-07-11 22:11:25.349525,5,2,51.490021,-0.097255,Leasehold,25.0,47.0,0,0,0.375,10.0,5.38,15.754999999999999
555000,2 bedroom flat for sale,"Queenstown Road, Battersea, London, SW8",http://www.rightmove.co.uk/property-for-sale/property-82697606.html,http://www.rightmove.co.uk/estate-agents/agent/James-Pendleton/Clapham-Common-and-Brixton-45744.html,82697606,2019-07-11 22:11:25.634182,6,2,51.47148,-0.148732,Share of Freehold,38.0,61.0,0,3,2.375,6.8,-5.9,6.275
635000,3 bedroom apartment for sale,"Grove Vale, East Dulwich, SE22",http://www.rightmove.co.uk/property-for-sale/property-72583675.html,http://www.rightmove.co.uk/estate-agents/agent/Caddingtons/London-205322.html,72583675,2019-07-11 22:11:25.634182,6,3,51.461467,-0.080029,Leasehold,30.0,44.0,5,0,0.375,10.0,7.359999999999999,22.735
635000,2 bedroom flat for sale,"Veronica Road, Heaver Estate, London, SW17",http://www.rightmove.co.uk/property-for-sale/property-61972083.html,http://www.rightmove.co.uk/estate-agents/agent/Foxtons/Balham-15981.html,61972083,2019-07-11 22:11:25.634182,6,2,51.437158000000004,-0.148705,Share of Freehold,46.0,58.0,0,3,0.375,3.5999999999999996,-2.9000000000000004,4.074999999999999
630000,2 bedroom flat for sale,"Richborne Terrace, London SW8",http://www.rightmove.co.uk/property-for-sale/property-82161557.html,http://www.rightmove.co.uk/estate-agents/agent/ludlowthompson/Kennington-Oval---Sales-77465.html,82161557,2019-07-11 22:11:25.634182,6,2,51.479174,-0.117273,-,30.0,52.0,0,0,0.5,10.0,2.08,12.58
630000,2 bedroom flat for sale,"Stockwell Road, BRX, Stockwell Road",http://www.rightmove.co.uk/property-for-sale/property-63140703.html,http://www.rightmove.co.uk/estate-agents/agent/Dexters/New-Homes-Mayfair-187892.html,63140703,2019-07-11 22:11:25.634182,6,2,51.462856,-0.113391,-,35.0,53.0,0,0,0.5,8.0,1.42,9.92
630000,2 bedroom apartment for sale,"Grosvenor Terrace, SE5",http://www.rightmove.co.uk/property-for-sale/property-56646738.html,http://www.rightmove.co.uk/estate-agents/agent/Daniel-Cobb/Kennington-58939.html,56646738,2019-07-11 22:11:25.634182,6,2,51.481625,-0.09851499999999999,Leasehold,27.0,46.0,0,0,0.5,10.0,6.04,16.54
630000,2 bedroom flat for sale,"Marsden Road, London SE15",http://www.rightmove.co.uk/property-for-sale/property-64877005.html,http://www.rightmove.co.uk/estate-agents/agent/ludlowthompson/Dulwich---Sales-5483.html,64877005,2019-07-11 22:11:25.634182,6,2,51.463371,-0.074446,-,29.0,44.0,0,0,0.5,10.0,7.359999999999999,17.86
630000,3 bedroom semi-detached house for sale,Brockley Rise Honor Oak SE23,http://www.rightmove.co.uk/property-for-sale/property-63476916.html,http://www.rightmove.co.uk/estate-agents/agent/Acorn/Brockley-50662.html,63476916,2019-07-11 22:11:25.634182,6,3,51.445676,-0.043099,Freehold,30.0,37.0,5,3,0.5,10.0,10.0,28.5
630000,3 bedroom flat for sale,"Herne Hill Road, Herne Hill, London, SE24",http://www.rightmove.co.uk/property-for-sale/property-82986290.html,http://www.rightmove.co.uk/estate-agents/agent/Foxtons/Brixton-56751.html,82986290,2019-07-11 22:11:25.634182,6,3,51.46435200000001,-0.099438,Share of Freehold,33.0,50.0,5,3,0.5,8.8,3.3999999999999995,20.7
630000,3 bedroom flat for sale,"Telford Avenue, Balham",http://www.rightmove.co.uk/property-for-sale/property-79656473.html,http://www.rightmove.co.uk/estate-agents/agent/Jacksons-Estate-Agents/Balham-65785.html,79656473,2019-07-11 22:11:25.634182,6,3,51.441516,-0.135099,-,43.0,54.0,5,0,0.5,4.8,0.7599999999999998,11.06
629950,3 bedroom apartment for sale,"Keston Road , London",http://www.rightmove.co.uk/property-for-sale/property-72224194.html,http://www.rightmove.co.uk/estate-agents/agent/Urban-Village/London-60210.html,72224194,2019-07-11 22:11:25.634182,6,3,51.463046999999996,-0.071149,Leasehold,29.0,43.0,5,0,0.50125,10.0,8.02,23.52125
629950,3 bedroom flat for sale,"Keston Road, Peckham Rye, SE15",http://www.rightmove.co.uk/property-for-sale/property-81316001.html,http://www.rightmove.co.uk/estate-agents/agent/Mundays/London-143609.html,81316001,2019-07-11 22:11:25.634182,6,3,51.463132,-0.070857,Share of Freehold,29.0,43.0,5,3,0.50125,10.0,8.02,26.52125
625000,2 bedroom apartment for sale,"Camberwell On The Green, Camberwell Green, SE5",http://www.rightmove.co.uk/property-for-sale/property-59418030.html,http://www.rightmove.co.uk/estate-agents/agent/Marsh-and-Parsons/New-Homes-33948.html,59418030,2019-07-11 22:11:25.634182,6,2,51.475026,-0.093762,Leasehold,28.0,46.0,0,0,0.625,10.0,6.04,16.665
625000,3 bedroom semi-detached house for sale,"Waddington Way, London",http://www.rightmove.co.uk/property-for-sale/property-70667098.html,http://www.rightmove.co.uk/estate-agents/agent/James-Alexander-Estate-Agents/Norbury-3327.html,70667098,2019-07-11 22:11:25.634182,6,3,51.413589,-0.09841699999999999,-,45.0,53.0,5,0,0.625,4.0,1.42,11.045
625000,3 bedroom flat for sale,"Blenheim Gardens, Brixton Hill, London, SW2",http://www.rightmove.co.uk/property-for-sale/property-78822800.html,http://www.rightmove.co.uk/estate-agents/agent/Foxtons/Brixton-56751.html,78822800,2019-07-11 22:11:25.634182,6,3,51.453771,-0.121351,Leasehold,40.0,54.0,5,0,0.625,6.0,0.7599999999999998,12.385
625000,2 bedroom maisonette for sale,"Dumbarton Road, Brixton Hill",http://www.rightmove.co.uk/property-for-sale/property-82914248.html,http://www.rightmove.co.uk/estate-agents/agent/Kinleigh-Folkard-and-Hayward---Sales/Streatham-55537.html,82914248,2019-07-11 22:11:25.634182,6,2,51.450520000000004,-0.124929,Leasehold,40.0,53.0,0,0,0.625,6.0,1.42,8.045
625000,2 bedroom semi-detached house for sale,"Spa Hill, London, SE19",http://www.rightmove.co.uk/property-for-sale/property-71652211.html,http://www.rightmove.co.uk/estate-agents/agent/Winkworth/Crystal-Palace-68930.html,71652211,2019-07-11 22:11:25.634182,6,2,51.412256,-0.09275900000000001,Freehold,44.0,52.0,0,3,0.625,4.3999999999999995,2.08,10.104999999999999
625000,2 bedroom flat for sale,"Palm House, Vauxhall Street, Nine Elms, London, SE11",http://www.rightmove.co.uk/property-for-sale/property-71687218.html,http://www.rightmove.co.uk/estate-agents/agent/Garton-Jones/Nine-Elms-and-Vauxhall-108373.html,71687218,2019-07-11 22:11:25.634182,6,2,51.489038,-0.11745799999999999,-,29.0,52.0,0,0,0.625,10.0,2.08,12.705
599000,2 bedroom apartment for sale,"Wells Park Road,
London,
SE26",http://www.rightmove.co.uk/property-for-sale/property-70043765.html,http://www.rightmove.co.uk/developer/branch/Crest-Nicholson-Regeneration/Wells-Park-Place-176777.html,70043765,2019-07-11 22:11:25.931925,7,2,51.427784,-0.06501,Leasehold,37.0,43.0,0,0,1.275,7.199999999999999,8.02,16.494999999999997
625000,3 bedroom apartment for sale,"Lucien Road, London, SW17",http://www.rightmove.co.uk/property-for-sale/property-72399178.html,http://www.rightmove.co.uk/estate-agents/agent/Marsh-and-Parsons/Tooting-61662.html,72399178,2019-07-11 22:11:25.931925,7,3,51.428447,-0.156344,Leasehold,50.0,62.0,5,0,0.625,2.0,-6.9,0.7249999999999996
625000,2 bedroom flat for sale,"Battersea Rise, SW11",http://www.rightmove.co.uk/property-for-sale/property-83015363.html,http://www.rightmove.co.uk/estate-agents/agent/Douglas-and-Gordon/Battersea-34274.html,83015363,2019-07-11 22:11:25.931925,7,2,51.460304,-0.169326,Leasehold,44.0,62.0,0,0,0.625,4.3999999999999995,-6.9,-1.8750000000000009
625000,3 bedroom maisonette for sale,"Franciscan Road, London, SW17",http://www.rightmove.co.uk/property-for-sale/property-72046384.html,http://www.rightmove.co.uk/estate-agents/agent/Marsh-and-Parsons/Tooting-61662.html,72046384,2019-07-11 22:11:25.931925,7,3,51.430505,-0.155995,Share of Freehold,49.0,61.0,5,3,0.625,2.3999999999999995,-5.9,5.124999999999998
625000,2 bedroom flat for sale,"Balham Hill, Balham",http://www.rightmove.co.uk/property-for-sale/property-71150071.html,http://www.rightmove.co.uk/estate-agents/agent/Dexters/Clapham-78413.html,71150071,2019-07-11 22:11:25.931925,7,2,51.451725,-0.148294,-,42.0,57.0,0,0,0.625,5.199999999999999,-1.9000000000000004,3.924999999999999
625000,3 bedroom terraced house for sale,"Alscot Way, Bermondsey, SE1",http://www.rightmove.co.uk/property-for-sale/property-82375013.html,http://www.rightmove.co.uk/estate-agents/agent/haart/Camberwell-Green-53233.html,82375013,2019-07-11 22:11:25.931925,7,3,,,Freehold,,,5,3,0.625,10.0,10.0,28.625
625000,2 bedroom ground floor flat for sale,"Savoy Mews, Clapham",http://www.rightmove.co.uk/property-for-sale/property-83053265.html,http://www.rightmove.co.uk/estate-agents/agent/Barnard-Marcus/Putney-1925.html,83053265,2019-07-11 22:11:25.931925,7,2,51.467729999999996,-0.12861,Freehold,34.0,56.0,0,3,0.625,8.4,-0.9000000000000004,11.125
625000,2 bedroom apartment for sale,"Salford Road, London, SW2",http://www.rightmove.co.uk/property-for-sale/property-82833596.html,http://www.rightmove.co.uk/estate-agents/agent/Marsh-and-Parsons/Streatham-Hill-207812.html,82833596,2019-07-11 22:11:25.931925,7,2,51.44212,-0.134458,Leasehold,42.0,54.0,0,0,0.625,5.199999999999999,0.7599999999999998,6.584999999999999
625000,3 bedroom flat for sale,"Streatham Common South, Streatham Common, London, SW16",http://www.rightmove.co.uk/property-for-sale/property-57243456.html,http://www.rightmove.co.uk/estate-agents/agent/Foxtons/Streatham-71419.html,57243456,2019-07-11 22:11:25.931925,7,3,51.420320000000004,-0.125771,Share of Freehold,50.0,58.0,5,3,0.625,2.0,-2.9000000000000004,7.725
625000,2 bedroom flat for sale,"Friern Road, East Dulwich",http://www.rightmove.co.uk/property-for-sale/property-82374380.html,http://www.rightmove.co.uk/estate-agents/agent/Kinleigh-Folkard-and-Hayward---Sales/East-Dulwich-52719.html,82374380,2019-07-11 22:11:25.931925,7,2,51.454789,-0.066603,Leasehold,31.0,43.0,0,0,0.625,9.6,8.02,18.244999999999997
625000,2 bedroom apartment for sale,"Friern Road, London",http://www.rightmove.co.uk/property-for-sale/property-60954474.html,http://www.rightmove.co.uk/estate-agents/agent/Leaders-Sales/Forest-Hill-112498.html,60954474,2019-07-11 22:11:25.931925,7,2,51.454732,-0.066434,Leasehold,31.0,43.0,0,0,0.625,9.6,8.02,18.244999999999997
625000,2 bedroom apartment for sale,"Grosvenor Park, London",http://www.rightmove.co.uk/property-for-sale/property-63341706.html,http://www.rightmove.co.uk/estate-agents/agent/Urban-Village/London-60210.html,63341706,2019-07-11 22:11:25.931925,7,2,,,Leasehold,,,0,0,0.625,10.0,10.0,20.625
625000,2 bedroom apartment for sale,"Thompson Road, East Dulwich, London, SE22",http://www.rightmove.co.uk/property-for-sale/property-62112729.html,http://www.rightmove.co.uk/estate-agents/agent/Winkworth/Dulwich-47825.html,62112729,2019-07-11 22:11:25.931925,7,2,51.451816,-0.074472,Share of Freehold,32.0,46.0,0,3,0.625,9.2,6.04,18.865
625000,2 bedroom flat for sale,"Wandsworth Road, London, SW8",http://www.rightmove.co.uk/property-for-sale/property-78915824.html,http://www.rightmove.co.uk/estate-agents/agent/Knight-Frank/Clapham-118759.html,78915824,2019-07-11 22:11:25.931925,7,2,51.475431,-0.131609,Leasehold,35.0,57.0,0,0,0.625,8.0,-1.9000000000000004,6.725
625000,2 bedroom apartment for sale,"East Dulwich Grove, East Dulwich, London, SE22",http://www.rightmove.co.uk/property-for-sale/property-63064467.html,http://www.rightmove.co.uk/estate-agents/agent/Winkworth/Dulwich-47825.html,63064467,2019-07-11 22:11:25.931925,7,2,51.458890999999994,-0.07959,Leasehold,30.0,44.0,0,0,0.625,10.0,7.359999999999999,17.985
625000,2 bedroom terraced house for sale,"Robson Road, West Norwood",http://www.rightmove.co.uk/property-for-sale/property-63416919.html,http://www.rightmove.co.uk/estate-agents/agent/Kinleigh-Folkard-and-Hayward---Sales/West-Dulwich-55546.html,63416919,2019-07-11 22:11:25.931925,7,2,51.434699,-0.09737699999999999,Freehold,40.0,48.0,0,3,0.625,6.0,4.72,14.344999999999999
625000,2 bedroom flat for sale,"Fontenoy Road, SW12",http://www.rightmove.co.uk/property-for-sale/property-81993395.html,http://www.rightmove.co.uk/estate-agents/agent/Douglas-and-Gordon/Balham-34241.html,81993395,2019-07-11 22:11:25.931925,7,2,51.438053000000004,-0.144835,Leasehold,46.0,58.0,0,0,0.625,3.5999999999999996,-2.9000000000000004,1.3249999999999993
625000,3 bedroom maisonette for sale,"Croxted Road, Dulwich",http://www.rightmove.co.uk/property-for-sale/property-71591425.html,http://www.rightmove.co.uk/estate-agents/agent/Kinleigh-Folkard-and-Hayward---Sales/Dulwich-Village-55435.html,71591425,2019-07-11 22:11:25.931925,7,3,51.445824,-0.095764,Share of Freehold,37.0,48.0,5,3,0.625,7.199999999999999,4.72,20.544999999999998
625000,2 bedroom flat for sale,"Thorne Road, London SW8",http://www.rightmove.co.uk/property-for-sale/property-82075562.html,http://www.rightmove.co.uk/estate-agents/agent/ludlowthompson/Kennington-Oval---Sales-77465.html,82075562,2019-07-11 22:11:25.931925,7,2,51.477236,-0.125417,-,33.0,55.0,0,0,0.625,8.8,0.09999999999999964,9.525
625000,3 bedroom apartment for sale,"Churchill Gardens, Pimlico, London, SW1V",http://www.rightmove.co.uk/property-for-sale/property-82375748.html,http://www.rightmove.co.uk/estate-agents/agent/Marsh-and-Parsons/Pimlico-53537.html,82375748,2019-07-11 22:11:25.931925,7,3,51.48611,-0.14045,Leasehold,35.0,58.0,5,0,0.625,8.0,-2.9000000000000004,10.725
625000,2 bedroom flat for sale,"Bellefields Road, London SW9",http://www.rightmove.co.uk/property-for-sale/property-82750241.html,http://www.rightmove.co.uk/estate-agents/agent/Keating-Estates/Clapham-6280.html,82750241,2019-07-11 22:11:25.931925,7,2,51.464501,-0.116432,Share of Freehold,36.0,56.0,0,3,0.625,7.6,-0.9000000000000004,10.325
625000,3 bedroom flat for sale,"Brixton Hill, Brixton Hill",http://www.rightmove.co.uk/property-for-sale/property-76634732.html,http://www.rightmove.co.uk/estate-agents/agent/Kinleigh-Folkard-and-Hayward---Sales/Streatham-55537.html,76634732,2019-07-11 22:11:25.931925,7,3,51.446728,-0.12393299999999999,Leasehold,41.0,54.0,5,0,0.625,5.6,0.7599999999999998,11.985
625000,3 bedroom flat for sale," Tintagel Crescent,  East Dulwich, SE22",http://www.rightmove.co.uk/property-for-sale/property-72380275.html,http://www.rightmove.co.uk/estate-agents/agent/Truepennys-Property-Consultants/Dulwich-49874.html,72380275,2019-07-11 22:11:25.931925,7,3,51.460623,-0.076865,Leasehold,29.0,43.0,5,0,0.625,10.0,8.02,23.645
625000,2 bedroom flat for sale,"Lloyd George Mansions, 191 Trinity Road, Wandsworth Common, London, SW17",http://www.rightmove.co.uk/property-for-sale/property-82904366.html,http://www.rightmove.co.uk/estate-agents/agent/James-Pendleton/Wandsworth-Common-and-Earlsfield-45750.html,82904366,2019-07-11 22:11:25.931925,7,2,51.441638,-0.166576,Leasehold,47.0,63.0,0,0,0.625,3.1999999999999993,-7.9,-4.075000000000001
559950,3 bedroom flat for sale,"Singer Mews, Clapham High Street, London, SW4",http://www.rightmove.co.uk/property-for-sale/property-62604741.html,http://www.rightmove.co.uk/estate-agents/agent/Foxtons/Battersea-15966.html,62604741,2019-07-11 22:11:26.251259,8,3,51.469206,-0.126892,Leasehold,33.0,55.0,5,0,2.25125,8.8,0.09999999999999964,16.151250000000005
625000,3 bedroom terraced house for sale,"Mitcham Lane, London SW16",http://www.rightmove.co.uk/property-for-sale/property-60654027.html,http://www.rightmove.co.uk/estate-agents/agent/ludlowthompson/Tooting---Sales-77486.html,60654027,2019-07-11 22:11:26.251259,8,3,51.426873,-0.136398,-,49.0,58.0,5,0,0.625,2.3999999999999995,-2.9000000000000004,5.124999999999998
625000,3 bedroom apartment for sale,"Crofton Road, Camberwell, SE5",http://www.rightmove.co.uk/property-for-sale/property-83048936.html,http://www.rightmove.co.uk/estate-agents/agent/Wooster-and-Stock/London-40674.html,83048936,2019-07-11 22:11:26.251259,8,3,51.470062,-0.078294,-,26.0,43.0,5,0,0.625,10.0,8.02,23.645
625000,2 bedroom apartment for sale,"Strata Building, E&C",http://www.rightmove.co.uk/property-for-sale/property-63509289.html,http://www.rightmove.co.uk/estate-agents/agent/Leonard-Leese/London-35405.html,63509289,2019-07-11 22:11:26.251259,8,2,51.492917,-0.099564,Leasehold,26.0,47.0,0,0,0.625,10.0,5.38,16.005
625000,2 bedroom flat for sale,"Fernlea Road, Balham",http://www.rightmove.co.uk/property-for-sale/property-79941512.html,http://www.rightmove.co.uk/estate-agents/agent/Jacksons-Estate-Agents/Balham-65785.html,79941512,2019-07-11 22:11:26.251259,8,2,51.442371,-0.147007,-,46.0,57.0,0,0,0.625,3.5999999999999996,-1.9000000000000004,2.3249999999999993
625000,3 bedroom house for sale,"Convent Hill, Upper Norwood, London SE19",http://www.rightmove.co.uk/property-for-sale/property-55965840.html,http://www.rightmove.co.uk/estate-agents/agent/Simon-Ward-Land-and-Property-Specialists/Upper-Norwood-69758.html,55965840,2019-07-11 22:11:26.251259,8,3,51.42041,-0.099613,-,45.0,52.0,5,0,0.625,4.0,2.08,11.705
625000,2 bedroom flat for sale,"Landells Road, East Dulwich, London SE22",http://www.rightmove.co.uk/property-for-sale/property-66664790.html,http://www.rightmove.co.uk/estate-agents/agent/haart/Dulwich-11440.html,66664790,2019-07-11 22:11:26.251259,8,2,51.453793,-0.07168300000000001,Leasehold,31.0,44.0,0,0,0.625,9.6,7.359999999999999,17.585
625000,2 bedroom flat for sale,"Friern Road, London SE22",http://www.rightmove.co.uk/property-for-sale/property-54539187.html,http://www.rightmove.co.uk/estate-agents/agent/ludlowthompson/Dulwich---Sales-5483.html,54539187,2019-07-11 22:11:26.251259,8,2,51.454789,-0.066603,-,31.0,43.0,0,0,0.625,9.6,8.02,18.244999999999997
625000,3 bedroom flat for sale,"Babington Road, Streatham",http://www.rightmove.co.uk/property-for-sale/property-61165668.html,http://www.rightmove.co.uk/estate-agents/agent/Dexters/Streatham-100624.html,61165668,2019-07-11 22:11:26.251259,8,3,51.425967,-0.134995,-,50.0,58.0,5,0,0.625,2.0,-2.9000000000000004,4.725
625000,2 bedroom maisonette for sale,"Landells Road, East Dulwich, London, SE22",http://www.rightmove.co.uk/property-for-sale/property-47103270.html,http://www.rightmove.co.uk/estate-agents/agent/Winkworth/Dulwich-47825.html,47103270,2019-07-11 22:11:26.251259,8,2,51.454105,-0.07145599999999999,Leasehold,31.0,44.0,0,0,0.625,9.6,7.359999999999999,17.585
625000,3 bedroom terraced house for sale,"Prioress Road, West Norwood, SE27",http://www.rightmove.co.uk/property-for-sale/property-71730211.html,http://www.rightmove.co.uk/estate-agents/agent/REMAX-First/Lewisham-115246.html,71730211,2019-07-11 22:11:26.251259,8,3,51.432429,-0.10711099999999996,Freehold,45.0,52.0,5,3,0.625,4.0,2.08,14.705
625000,2 bedroom apartment for sale,"Mount Nod Road, Streatham, London, SW16",http://www.rightmove.co.uk/property-for-sale/property-72851587.html,http://www.rightmove.co.uk/estate-agents/agent/Pedder/West-Norwood-107375.html,72851587,2019-07-11 22:11:26.251259,8,2,51.436409999999995,-0.118039,-,43.0,52.0,0,0,0.625,4.8,2.08,7.505
625000,3 bedroom terraced house for sale,"Friern Road, East Dulwich, London, SE22",http://www.rightmove.co.uk/property-for-sale/property-56241987.html,http://www.rightmove.co.uk/estate-agents/agent/Winkworth/Dulwich-47825.html,56241987,2019-07-11 22:11:26.251259,8,3,51.44828,-0.07153999999999999,Freehold,32.0,44.0,5,3,0.625,9.2,7.359999999999999,25.185
625000,3 bedroom terraced house for sale,"Portland Street, Walworth",http://www.rightmove.co.uk/property-for-sale/property-63326250.html,http://www.rightmove.co.uk/estate-agents/agent/Kinleigh-Folkard-and-Hayward---Sales/Kennington-55498.html,63326250,2019-07-11 22:11:26.251259,8,3,51.484836,-0.089242,Freehold,28.0,45.0,5,3,0.625,10.0,6.699999999999999,25.325
600000,3 bedroom house for sale,"Tilson Close, Camberwell, London, SE5",http://www.rightmove.co.uk/property-for-sale/property-72051472.html,http://www.rightmove.co.uk/estate-agents/agent/Foxtons/Peckham-66768.html,72051472,2019-07-11 22:11:26.575201,9,3,51.47917800000001,-0.08275199999999999,Freehold,25.0,44.0,5,3,1.25,10.0,7.359999999999999,26.61
625000,2 bedroom flat for sale,"Mantilla Road, Tooting Bec",http://www.rightmove.co.uk/property-for-sale/property-72643591.html,http://www.rightmove.co.uk/estate-agents/agent/Daniel-James-Estate-Agents/Tooting-114934.html,72643591,2019-07-11 22:11:26.575201,9,2,51.42873,-0.153724,Share of Freehold,50.0,61.0,0,3,0.625,2.0,-5.9,-0.27500000000000036
625000,2 bedroom flat for sale,"Gambetta Street, Battersea, London, SW8",http://www.rightmove.co.uk/property-for-sale/property-72852433.html,http://www.rightmove.co.uk/estate-agents/agent/James-Pendleton/Battersea-Park-and-Nine-Elms-86696.html,72852433,2019-07-11 22:11:26.575201,9,2,51.469594,-0.146478,Share of Freehold,40.0,60.0,0,3,0.625,6.0,-4.9,4.725
625000,2 bedroom ground floor flat for sale,"Savoy Mews, Clapham",http://www.rightmove.co.uk/property-for-sale/property-63473721.html,http://www.rightmove.co.uk/estate-agents/agent/Barnard-Marcus/Clapham-1891.html,63473721,2019-07-11 22:11:26.575201,9,2,51.467729999999996,-0.12861,Leasehold,34.0,56.0,0,0,0.625,8.4,-0.9000000000000004,8.125
625000,2 bedroom apartment for sale,"Edgeley Road, London, SW4",http://www.rightmove.co.uk/property-for-sale/property-63336855.html,http://www.rightmove.co.uk/estate-agents/agent/Savills/Northcote-Road-100852.html,63336855,2019-07-11 22:11:26.575201,9,2,51.467473999999996,-0.135773,Share of Freehold,37.0,58.0,0,3,0.625,7.199999999999999,-2.9000000000000004,7.924999999999999
625000,2 bedroom flat for sale,"Clapham Common North Side, Clapham",http://www.rightmove.co.uk/property-for-sale/property-62867799.html,http://www.rightmove.co.uk/estate-agents/agent/Dexters/Battersea-78410.html,62867799,2019-07-11 22:11:26.575201,9,2,51.461415,-0.157349,-,41.0,60.0,0,0,0.625,5.6,-4.9,1.3249999999999993
620000,3 bedroom apartment for sale,"Bermondsey Works, Bermondsey, London SE16",http://www.rightmove.co.uk/property-for-sale/property-79372121.html,http://www.rightmove.co.uk/estate-agents/agent/Chase-Evans/Greenwich-143039.html,79372121,2019-07-11 22:11:26.575201,9,3,51.485504999999996,-0.064296,Leasehold,17.0,37.0,5,0,0.75,10.0,10.0,25.75
620000,3 bedroom flat for sale,"Carter Street, Walworth",http://www.rightmove.co.uk/property-for-sale/property-63455343.html,http://www.rightmove.co.uk/estate-agents/agent/Kinleigh-Folkard-and-Hayward---Sales/Kennington-55498.html,63455343,2019-07-11 22:11:26.575201,9,3,51.485363,-0.09959,Leasehold,28.0,47.0,5,0,0.75,10.0,5.38,21.13
620000,2 bedroom flat for sale,"Marius Road, Balham",http://www.rightmove.co.uk/property-for-sale/property-79520840.html,http://www.rightmove.co.uk/estate-agents/agent/Jacksons-Estate-Agents/Balham-65785.html,79520840,2019-07-11 22:11:26.575201,9,2,51.440106,-0.15700699999999998,-,45.0,60.0,0,0,0.75,4.0,-4.9,-0.15000000000000036
620000,2 bedroom maisonette for sale,"Croxted Road, Dulwich",http://www.rightmove.co.uk/property-for-sale/property-71606224.html,http://www.rightmove.co.uk/estate-agents/agent/Kinleigh-Folkard-and-Hayward---Sales/Dulwich-Village-55435.html,71606224,2019-07-11 22:11:26.575201,9,2,51.445824,-0.095764,Share of Freehold,37.0,48.0,0,3,0.75,7.199999999999999,4.72,15.669999999999998
620000,2 bedroom apartment for sale,"Manor Place Depot, London, SE17",http://www.rightmove.co.uk/property-for-sale/property-76187720.html,http://www.rightmove.co.uk/estate-agents/agent/Savills-New-Homes/Canary-Wharf-48988.html,76187720,2019-07-11 22:11:26.575201,9,2,51.489057,-0.097247,-,26.0,46.0,0,0,0.75,10.0,6.04,16.79
620000,2 bedroom apartment for sale,"Kenwyn Road, London, SW4",http://www.rightmove.co.uk/property-for-sale/property-71734183.html,http://www.rightmove.co.uk/estate-agents/agent/Marsh-and-Parsons/Clapham-22233.html,71734183,2019-07-11 22:11:26.575201,9,2,51.462144,-0.131619,Share of Freehold,36.0,58.0,0,3,0.75,7.6,-2.9000000000000004,8.45
620000,2 bedroom maisonette for sale,"Rotherhithe New Road, Bermondsey, London, SE16",http://www.rightmove.co.uk/property-for-sale/property-67611526.html,http://www.rightmove.co.uk/estate-agents/agent/Foxtons/London-Bridge-55101.html,67611526,2019-07-11 22:11:26.575201,9,2,51.485302000000004,-0.06468099999999999,Leasehold,17.0,37.0,0,0,0.75,10.0,10.0,20.75
620000,2 bedroom flat for sale,"Cambray Road, Balham",http://www.rightmove.co.uk/property-for-sale/property-62800518.html,http://www.rightmove.co.uk/estate-agents/agent/Aspire/Balham-45018.html,62800518,2019-07-11 22:11:26.575201,9,2,51.444934,-0.139342,-,43.0,56.0,0,0,0.75,4.8,-0.9000000000000004,4.6499999999999995
620000,2 bedroom flat for sale,"Stapleton Road, Tooting",http://www.rightmove.co.uk/property-for-sale/property-81730778.html,http://www.rightmove.co.uk/estate-agents/agent/Jacksons-Estate-Agents/Tooting-72056.html,81730778,2019-07-11 22:11:26.575201,9,2,51.434051000000004,-0.1565,-,49.0,60.0,0,0,0.75,2.3999999999999995,-4.9,-1.7500000000000009
619950,2 bedroom apartment for sale,"Crewdson Road, London, SW9",http://www.rightmove.co.uk/property-for-sale/property-82484816.html,http://www.rightmove.co.uk/estate-agents/agent/Winkworth/Kennington-Sales-84226.html,82484816,2019-07-11 22:11:26.575201,9,2,51.479023,-0.113449,Leasehold,30.0,51.0,0,0,0.75125,10.0,2.7399999999999993,13.49125
615000,2 bedroom flat for sale,"Tennyson Street, Battersea, London, SW8",http://www.rightmove.co.uk/property-for-sale/property-82662890.html,http://www.rightmove.co.uk/estate-agents/agent/James-Pendleton/Clapham-Common-and-Brixton-45744.html,82662890,2019-07-11 22:11:26.575201,9,2,51.469617,-0.14791700000000002,Leasehold,39.0,61.0,0,0,0.875,6.4,-5.9,1.375
615000,2 bedroom flat for sale,"Cato Road, Clapham",http://www.rightmove.co.uk/property-for-sale/property-71995441.html,http://www.rightmove.co.uk/estate-agents/agent/Dexters/Clapham-78413.html,71995441,2019-07-11 22:11:26.853471,10,2,51.463828,-0.131779,-,36.0,57.0,0,0,0.875,7.6,-1.9000000000000004,6.574999999999999
615000,2 bedroom apartment for sale,"Gaumont Place, London, SW2",http://www.rightmove.co.uk/property-for-sale/property-83004926.html,http://www.rightmove.co.uk/estate-agents/agent/Winkworth/Streatham-34334.html,83004926,2019-07-11 22:11:26.853471,10,2,51.439137,-0.12726500000000002,Leasehold,44.0,53.0,0,0,0.875,4.3999999999999995,1.42,6.694999999999999
615000,2 bedroom flat for sale,"Reform Street, Battersea",http://www.rightmove.co.uk/property-for-sale/property-62359164.html,http://www.rightmove.co.uk/estate-agents/agent/Kinleigh-Folkard-and-Hayward---Sales/Battersea-Park-55348.html,62359164,2019-07-11 22:11:26.853471,10,2,51.472234,-0.16162,Leasehold,42.0,65.0,0,0,0.875,5.199999999999999,-9.9,-3.825000000000001
615000,2 bedroom flat for sale,"Camberwell New Road, Camberwell, London, SE5",http://www.rightmove.co.uk/property-for-sale/property-81749450.html,http://www.rightmove.co.uk/estate-agents/agent/Foxtons/Brixton-56751.html,81749450,2019-07-11 22:11:26.853471,10,2,51.478293,-0.09631100000000001,Leasehold,28.0,47.0,0,0,0.875,10.0,5.38,16.255
615000,2 bedroom flat for sale,"Barry Road, London, SE22",http://www.rightmove.co.uk/property-for-sale/property-73091321.html,http://www.rightmove.co.uk/estate-agents/agent/Ready-Property/London-129868.html,73091321,2019-07-11 22:11:26.853471,10,2,51.455725,-0.068867,Leasehold,29.0,43.0,0,0,0.875,10.0,8.02,18.895
615000,2 bedroom flat for sale,"Stockwell Road, BRX, Stockwell Road",http://www.rightmove.co.uk/property-for-sale/property-72336964.html,http://www.rightmove.co.uk/estate-agents/agent/Dexters/New-Homes-Mayfair-187892.html,72336964,2019-07-11 22:11:26.853471,10,2,51.466735,-0.11703399999999999,-,34.0,54.0,0,0,0.875,8.4,0.7599999999999998,10.035
615000,2 bedroom flat for sale,"Netherford Road, London, SW4",http://www.rightmove.co.uk/property-for-sale/property-81167108.html,http://www.rightmove.co.uk/estate-agents/agent/Hamptons-International-Sales/Clapham-37877.html,81167108,2019-07-11 22:11:26.853471,10,2,51.468865,-0.13935799999999998,Leasehold,37.0,60.0,0,0,0.875,7.199999999999999,-4.9,3.174999999999999
615000,2 bedroom flat for sale,"Tenham Avenue, Balham",http://www.rightmove.co.uk/property-for-sale/property-76642745.html,http://www.rightmove.co.uk/estate-agents/agent/Jacksons-Estate-Agents/Balham-65785.html,76642745,2019-07-11 22:11:26.853471,10,2,51.440719,-0.13517300000000002,-,44.0,55.0,0,0,0.875,4.3999999999999995,0.09999999999999964,5.374999999999999
615000,3 bedroom semi-detached house for sale,"Whittell Gardens, Sydenham, London",http://www.rightmove.co.uk/property-for-sale/property-69910849.html,http://www.rightmove.co.uk/estate-agents/agent/Martin-and-Co/Streatham---Lettings-and-Sales-159983.html,69910849,2019-07-11 22:11:26.853471,10,3,51.431683,-0.05607,Freehold,37.0,42.0,5,3,0.875,7.199999999999999,8.68,24.755
615000,2 bedroom flat for sale,"Ferndale Road, Clapham",http://www.rightmove.co.uk/property-for-sale/property-61015437.html,http://www.rightmove.co.uk/estate-agents/agent/Kinleigh-Folkard-and-Hayward---Sales/Clapham-Common-106615.html,61015437,2019-07-11 22:11:26.853471,10,2,51.463152,-0.127578,Share of Freehold,36.0,57.0,0,3,0.875,7.6,-1.9000000000000004,9.575
615000,2 bedroom apartment for sale,"Lupus Street, Pimlico, London, SW1V",http://www.rightmove.co.uk/property-for-sale/property-61681293.html,http://www.rightmove.co.uk/estate-agents/agent/Marsh-and-Parsons/Pimlico-53537.html,61681293,2019-07-11 22:11:26.853471,10,2,51.488341,-0.137958,Share of Freehold,34.0,57.0,0,3,0.875,8.4,-1.9000000000000004,10.375
615000,2 bedroom apartment for sale,"Palm House, 70 Sandcroft Street, Kennington, London, SE11",http://www.rightmove.co.uk/property-for-sale/property-61188009.html,http://www.rightmove.co.uk/estate-agents/agent/Moving-City/London-61607.html,61188009,2019-07-11 22:11:26.853471,10,2,51.489903999999996,-0.11669600000000001,Leasehold,30.0,53.0,0,0,0.875,10.0,1.42,12.295
615000,2 bedroom terraced house for sale,"Nairne Grove, Herne Hill",http://www.rightmove.co.uk/property-for-sale/property-66637285.html,http://www.rightmove.co.uk/estate-agents/agent/Kinleigh-Folkard-and-Hayward---Sales/Dulwich-Village-55435.html,66637285,2019-07-11 22:11:26.853471,10,2,51.458117,-0.08863,Leasehold,34.0,49.0,0,0,0.875,8.4,4.06,13.335
614995,3 bedroom flat for sale,"Elmington Green, Southampton Way, Camberwell, SE5",http://www.rightmove.co.uk/property-for-sale/property-67252406.html,http://www.rightmove.co.uk/estate-agents/agent/haart/Camberwell-Green-53233.html,67252406,2019-07-11 22:11:26.853471,10,3,,,Leasehold,,,5,0,0.875125,10.0,10.0,25.875125
610000,2 bedroom flat for sale,"Salford Road, Balham, SW2",http://www.rightmove.co.uk/property-for-sale/property-81473609.html,http://www.rightmove.co.uk/estate-agents/agent/Jacksons-Estate-Agents/Balham-65785.html,81473609,2019-07-11 22:11:26.853471,10,2,51.440814,-0.133129,-,43.0,55.0,0,0,1.0,4.8,0.09999999999999964,5.8999999999999995
610000,2 bedroom penthouse for sale,"Houghton Square, London",http://www.rightmove.co.uk/property-for-sale/property-79305473.html,http://www.rightmove.co.uk/estate-agents/agent/I-Am-The-Agent/Nationwide-90269.html,79305473,2019-07-11 22:11:26.853471,10,2,51.467876000000004,-0.128867,Leasehold,34.0,56.0,0,0,1.0,8.4,-0.9000000000000004,8.5
607500,2 bedroom apartment for sale,"Manor Place Depot, London, SE17",http://www.rightmove.co.uk/property-for-sale/property-81226769.html,http://www.rightmove.co.uk/estate-agents/agent/Savills-New-Homes/Canary-Wharf-48988.html,81226769,2019-07-11 22:11:26.853471,10,2,51.489057,-0.097247,-,26.0,46.0,0,0,1.0625,10.0,6.04,17.1025
605000,2 bedroom flat for sale,"Goodrich Road, East Dulwich, SE22",http://www.rightmove.co.uk/property-for-sale/property-80816708.html,http://www.rightmove.co.uk/estate-agents/agent/Mundays/London-143609.html,80816708,2019-07-11 22:11:26.853471,10,2,51.449662,-0.06653200000000001,Share of Freehold,32.0,42.0,0,3,1.125,9.2,8.68,22.005
605000,2 bedroom apartment for sale,"The Levers, 2-16 Amelia Street, London ***STAMP DUTY INCENTIVE AVAILABLE***",http://www.rightmove.co.uk/property-for-sale/property-61551831.html,http://www.rightmove.co.uk/estate-agents/agent/Hastings-International/London-Bridge-14606.html,61551831,2019-07-11 22:11:26.853471,10,2,51.490021,-0.097255,Leasehold,25.0,47.0,0,0,1.125,10.0,5.38,16.505
605000,2 bedroom apartment for sale,"The Levers, 2-16 Amelia Street, London ***STAMP DUTY INCENTIVE AVAILABLE***",http://www.rightmove.co.uk/property-for-sale/property-61551840.html,http://www.rightmove.co.uk/estate-agents/agent/Hastings-International/London-Bridge-14606.html,61551840,2019-07-11 22:11:26.853471,10,2,51.490021,-0.097255,Leasehold,25.0,47.0,0,0,1.125,10.0,5.38,16.505
600000,2 bedroom flat for sale,"Buxton Mews, SW4",http://www.rightmove.co.uk/property-for-sale/property-81973022.html,http://www.rightmove.co.uk/estate-agents/agent/Douglas-and-Gordon/Clapham-Southside-34250.html,81973022,2019-07-11 22:11:26.853471,10,2,51.470766,-0.130823,Leasehold,35.0,57.0,0,0,1.25,8.0,-1.9000000000000004,7.35
600000,3 bedroom flat for sale,"Tritton Road, West Dulwich, London, SE21",http://www.rightmove.co.uk/property-for-sale/property-82909286.html,http://www.rightmove.co.uk/estate-agents/agent/Foxtons/Crystal-Palace-100426.html,82909286,2019-07-11 22:11:26.853471,10,3,51.432263,-0.094081,Share of Freehold,40.0,48.0,5,3,1.25,6.0,4.72,19.97
600000,3 bedroom flat for sale,"Broomwood Road, Battersea",http://www.rightmove.co.uk/property-for-sale/property-70551361.html,http://www.rightmove.co.uk/estate-agents/agent/Kinleigh-Folkard-and-Hayward---Sales/Battersea-55345.html,70551361,2019-07-11 22:11:26.853471,10,3,51.45382,-0.162936,Leasehold,44.0,60.0,5,0,1.25,4.3999999999999995,-4.9,5.749999999999998
550000,3 bedroom flat for sale,"Kings Avenue, London SW4",http://www.rightmove.co.uk/property-for-sale/property-82874774.html,http://www.rightmove.co.uk/estate-agents/agent/Keating-Estates/Brixton-106135.html,82874774,2019-07-11 22:11:27.140676,11,3,51.452215,-0.129913,Share of Freehold,39.0,55.0,5,3,2.5,6.4,0.09999999999999964,17.0
600000,2 bedroom flat for sale,"Peckham Rye, East Dulwich, London SE22",http://www.rightmove.co.uk/property-for-sale/property-63450654.html,http://www.rightmove.co.uk/estate-agents/agent/haart/Dulwich-11440.html,63450654,2019-07-11 22:11:27.140676,11,2,51.459644,-0.06654199999999999,Leasehold,30.0,43.0,0,0,1.25,10.0,8.02,19.27
600000,3 bedroom flat for sale,"Thurlby Road, London, SE27",http://www.rightmove.co.uk/property-for-sale/property-79928516.html,http://www.rightmove.co.uk/estate-agents/agent/Nested/London-65616.html,79928516,2019-07-11 22:11:27.140676,11,3,51.430234999999996,-0.11051,Share of Freehold,44.0,53.0,5,3,1.25,4.3999999999999995,1.42,15.069999999999999
600000,2 bedroom apartment for sale,"Strata, Elephant & Castle, London SE1",http://www.rightmove.co.uk/property-for-sale/property-61435152.html,http://www.rightmove.co.uk/estate-agents/agent/Chase-Evans/Elephant-and-Castle-65124.html,61435152,2019-07-11 22:11:27.140676,11,2,51.492917,-0.099564,Leasehold,26.0,47.0,0,0,1.25,10.0,5.38,16.63
600000,2 bedroom apartment for sale,"Dalberg Road, Brixton",http://www.rightmove.co.uk/property-for-sale/property-82928102.html,http://www.rightmove.co.uk/estate-agents/agent/Caddingtons/London-205322.html,82928102,2019-07-11 22:11:27.140676,11,2,51.455892999999996,-0.111123,Leasehold,37.0,54.0,0,0,1.25,7.199999999999999,0.7599999999999998,9.209999999999999
600000,2 bedroom flat for sale,"Dalberg Road, Brixton",http://www.rightmove.co.uk/property-for-sale/property-72507886.html,http://www.rightmove.co.uk/estate-agents/agent/Dexters/Clapham-78413.html,72507886,2019-07-11 22:11:27.140676,11,2,51.455962,-0.11096800000000001,-,37.0,54.0,0,0,1.25,7.199999999999999,0.7599999999999998,9.209999999999999
600000,3 bedroom flat for sale,"Barry Road, London SE22",http://www.rightmove.co.uk/property-for-sale/property-71821093.html,http://www.rightmove.co.uk/estate-agents/agent/ludlowthompson/Dulwich---Sales-5483.html,71821093,2019-07-11 22:11:27.140676,11,3,51.453859,-0.070241,-,30.0,43.0,5,0,1.25,10.0,8.02,24.27
600000,2 bedroom flat for sale,"Clapham Park Road, Clapham, SW4",http://www.rightmove.co.uk/property-for-sale/property-72057667.html,http://www.rightmove.co.uk/estate-agents/agent/Portico/Clapham-70256.html,72057667,2019-07-11 22:11:27.140676,11,2,51.459299,-0.13407,Leasehold,38.0,59.0,0,0,1.25,6.8,-3.9000000000000004,4.15
600000,3 bedroom terraced house for sale,"Kneller Road, London, SE4",http://www.rightmove.co.uk/property-for-sale/property-70062304.html,http://www.rightmove.co.uk/estate-agents/agent/Kallars/Brockley-91592.html,70062304,2019-07-11 22:11:27.140676,11,3,51.460839,-0.038153,Freehold,26.0,36.0,5,3,1.25,10.0,10.0,29.25
600000,2 bedroom flat for sale,"Hendham Road, Wandsworth Common, London, SW17",http://www.rightmove.co.uk/property-for-sale/property-79971653.html,http://www.rightmove.co.uk/estate-agents/agent/James-Pendleton/Wandsworth-Common-and-Earlsfield-45750.html,79971653,2019-07-11 22:11:27.140676,11,2,51.439966,-0.165796,Leasehold,47.0,62.0,0,0,1.25,3.1999999999999993,-6.9,-2.450000000000001
600000,2 bedroom flat for sale,"Assembly Apartments, Peckham, SE15",http://www.rightmove.co.uk/property-for-sale/property-71845453.html,http://www.rightmove.co.uk/estate-agents/agent/Urban-Spaces/Clerkenwell-167390.html,71845453,2019-07-11 22:11:27.140676,11,2,51.47468,-0.05442999999999999,Leasehold,24.0,37.0,0,0,1.25,10.0,10.0,21.25
600000,2 bedroom apartment for sale,"18-22, Grove Vale, London, SE22 8EF",http://www.rightmove.co.uk/property-for-sale/property-63320385.html,http://www.rightmove.co.uk/estate-agents/agent/Kalmars-Residential/Shad-Thames-89983.html,63320385,2019-07-11 22:11:27.140676,11,2,51.461568,-0.080154,-,30.0,44.0,0,0,1.25,10.0,7.359999999999999,18.61
600000,2 bedroom flat for sale,"Friern Road, East Dulwich, London, SE22",http://www.rightmove.co.uk/property-for-sale/property-48264729.html,http://www.rightmove.co.uk/estate-agents/agent/haart/Dulwich-11440.html,48264729,2019-07-11 22:11:27.140676,11,2,,,Leasehold,,,0,0,1.25,10.0,10.0,21.25
600000,2 bedroom flat for sale,"Radbourne Road, SW12",http://www.rightmove.co.uk/property-for-sale/property-71620015.html,http://www.rightmove.co.uk/estate-agents/agent/Douglas-and-Gordon/Balham-34241.html,71620015,2019-07-11 22:11:27.140676,11,2,51.446690000000004,-0.138527,Leasehold,42.0,54.0,0,0,1.25,5.199999999999999,0.7599999999999998,7.209999999999999
600000,2 bedroom penthouse for sale,"Triangle Court, 315-317 Camberwell New Road, London, SE5",http://www.rightmove.co.uk/property-for-sale/property-72722683.html,http://www.rightmove.co.uk/estate-agents/agent/NDLDN/London-197795.html,72722683,2019-07-11 22:11:27.140676,11,2,51.474641,-0.09433,Leasehold,28.0,46.0,0,0,1.25,10.0,6.04,17.29
600000,2 bedroom flat for sale,"Dunstans Road, East Dulwich, London, SE22",http://www.rightmove.co.uk/property-for-sale/property-63135759.html,http://www.rightmove.co.uk/estate-agents/agent/haart/Dulwich-11440.html,63135759,2019-07-11 22:11:27.140676,11,2,51.450638,-0.06577100000000001,Share of Freehold,31.0,42.0,0,3,1.25,9.6,8.68,22.53
600000,2 bedroom apartment for sale,"Friern Road, East Dulwich, London, SE22",http://www.rightmove.co.uk/property-for-sale/property-62314941.html,http://www.rightmove.co.uk/estate-agents/agent/Winkworth/Dulwich-47825.html,62314941,2019-07-11 22:11:27.140676,11,2,51.454107,-0.067314,Leasehold,30.0,42.0,0,0,1.25,10.0,8.68,19.93
600000,3 bedroom semi-detached house for sale,"Devonshire Road, London",http://www.rightmove.co.uk/property-for-sale/property-79738187.html,http://www.rightmove.co.uk/estate-agents/agent/Doorstepscouk/National-152222.html,79738187,2019-07-11 22:11:27.140676,11,3,51.446971999999995,-0.048714,-,32.0,41.0,5,0,1.25,9.2,9.34,24.79
600000,2 bedroom flat for sale,"Fernlea Road, Balham",http://www.rightmove.co.uk/property-for-sale/property-71451460.html,http://www.rightmove.co.uk/estate-agents/agent/Kinleigh-Folkard-and-Hayward---Sales/Balham-55339.html,71451460,2019-07-11 22:11:27.140676,11,2,51.442526,-0.148136,Leasehold,46.0,57.0,0,0,1.25,3.5999999999999996,-1.9000000000000004,2.9499999999999993
600000,3 bedroom terraced house for sale,"Kneller Road, London",http://www.rightmove.co.uk/property-for-sale/property-69601580.html,http://www.rightmove.co.uk/estate-agents/agent/The-Express-Estate-Agency/Nationwide-61544.html,69601580,2019-07-11 22:11:27.140676,11,3,51.461054,-0.038004,Freehold,26.0,36.0,5,3,1.25,10.0,10.0,29.25
600000,3 bedroom flat for sale,"Balham High Road, LONDON, SW12",http://www.rightmove.co.uk/property-for-sale/property-81371900.html,http://www.rightmove.co.uk/estate-agents/agent/Andrews-Estate-Agents/Balham-13135.html,81371900,2019-07-11 22:11:27.140676,11,3,51.446293,-0.149233,-,42.0,56.0,5,0,1.25,5.199999999999999,-0.9000000000000004,10.549999999999999
600000,2 bedroom flat for sale,"102 Clapham Park Road, London",http://www.rightmove.co.uk/property-for-sale/property-61871820.html,http://www.rightmove.co.uk/estate-agents/agent/YOPA/London-204362.html,61871820,2019-07-11 22:11:27.140676,11,2,51.459352,-0.133981,-,38.0,59.0,0,0,1.25,6.8,-3.9000000000000004,4.15
600000,3 bedroom house for sale,"New Green Place, Crystal Palace, London, SE19",http://www.rightmove.co.uk/property-for-sale/property-82176965.html,http://www.rightmove.co.uk/estate-agents/agent/Foxtons/Crystal-Palace-100426.html,82176965,2019-07-11 22:11:27.140676,11,3,51.420514000000004,-0.087149,Freehold,44.0,51.0,5,3,1.25,4.3999999999999995,2.7399999999999993,16.389999999999997
600000,2 bedroom flat for sale,"Friern Road, London SE22",http://www.rightmove.co.uk/property-for-sale/property-54539181.html,http://www.rightmove.co.uk/estate-agents/agent/ludlowthompson/Dulwich---Sales-5483.html,54539181,2019-07-11 22:11:27.140676,11,2,51.454789,-0.066603,-,31.0,43.0,0,0,1.25,9.6,8.02,18.869999999999997
600000,2 bedroom apartment for sale,"Tessa Apartments, East Dulwich Grove, London, SE22",http://www.rightmove.co.uk/property-for-sale/property-55093044.html,http://www.rightmove.co.uk/estate-agents/agent/Kalmars-Residential/Shad-Thames-89983.html,55093044,2019-07-11 22:11:27.502875,12,2,51.458044,-0.08132400000000001,-,31.0,44.0,0,0,1.25,9.6,7.359999999999999,18.21
600000,2 bedroom apartment for sale,"The Levers, 2-16 Amelia Street, London ***STAMP DUTY INCENTIVE AVAILABLE***",http://www.rightmove.co.uk/property-for-sale/property-78617549.html,http://www.rightmove.co.uk/estate-agents/agent/Hastings-International/London-Bridge-14606.html,78617549,2019-07-11 22:11:27.502875,12,2,51.490021,-0.097255,Leasehold,25.0,47.0,0,0,1.25,10.0,5.38,16.63
600000,3 bedroom flat for sale,"Queenstown Road, South Lambeth",http://www.rightmove.co.uk/property-for-sale/property-72202057.html,http://www.rightmove.co.uk/estate-agents/agent/Dexters/Battersea-78410.html,72202057,2019-07-11 22:11:27.502875,12,3,51.473981,-0.148035,-,38.0,60.0,5,0,1.25,6.8,-4.9,8.15
600000,2 bedroom flat for sale,"St George Wharf, Vauxhall, London, SW8",http://www.rightmove.co.uk/property-for-sale/property-75169967.html,http://www.rightmove.co.uk/estate-agents/agent/Foxtons/Vauxhall-66771.html,75169967,2019-07-11 22:11:27.502875,12,2,51.486004,-0.125082,Leasehold,30.0,55.0,0,0,1.25,10.0,0.09999999999999964,11.35
600000,2 bedroom ground floor flat for sale,"Colwell Road, East Dulwich, London, SE22",http://www.rightmove.co.uk/property-for-sale/property-61456722.html,http://www.rightmove.co.uk/estate-agents/agent/Winkworth/Dulwich-47825.html,61456722,2019-07-11 22:11:27.502875,12,2,51.455,-0.077793,Leasehold,32.0,46.0,0,0,1.25,9.2,6.04,16.49
600000,2 bedroom apartment for sale,"Blueprint Apartments, 16 Balham Grove, London, SW12",http://www.rightmove.co.uk/property-for-sale/property-79566341.html,http://www.rightmove.co.uk/estate-agents/agent/Marsh-and-Parsons/Balham-and-Clapham-South-22320.html,79566341,2019-07-11 22:11:27.502875,12,2,51.44635,-0.151104,Leasehold,43.0,57.0,0,0,1.25,4.8,-1.9000000000000004,4.1499999999999995
600000,2 bedroom apartment for sale,"Friern Road, London",http://www.rightmove.co.uk/property-for-sale/property-60954534.html,http://www.rightmove.co.uk/estate-agents/agent/Leaders-Sales/Forest-Hill-112498.html,60954534,2019-07-11 22:11:27.502875,12,2,51.454732,-0.066434,Leasehold,31.0,43.0,0,0,1.25,9.6,8.02,18.869999999999997
600000,2 bedroom flat for sale,"East Dulwich Grove, Dulwich",http://www.rightmove.co.uk/property-for-sale/property-82358267.html,http://www.rightmove.co.uk/estate-agents/agent/Property-Incom/Dulwich-5605.html,82358267,2019-07-11 22:11:27.502875,12,2,51.458991,-0.079634,Share of Freehold,30.0,44.0,0,3,1.25,10.0,7.359999999999999,21.61
600000,3 bedroom terraced house for sale,"Cranston Road, Forest Hill",http://www.rightmove.co.uk/property-for-sale/property-57942423.html,http://www.rightmove.co.uk/estate-agents/agent/Kinleigh-Folkard-and-Hayward---Sales/Forest-Hill-55462.html,57942423,2019-07-11 22:11:27.502875,12,3,51.437834,-0.041996,Freehold,33.0,37.0,5,3,1.25,8.8,10.0,28.05
600000,2 bedroom flat for sale,"Bedford Road, Clapham",http://www.rightmove.co.uk/property-for-sale/property-61037115.html,http://www.rightmove.co.uk/estate-agents/agent/Barnard-Marcus/Clapham-1891.html,61037115,2019-07-11 22:11:27.502875,12,2,51.46464,-0.12953,Leasehold,35.0,56.0,0,0,1.25,8.0,-0.9000000000000004,8.35
600000,2 bedroom flat for sale,"32 Becmead Avenue, Streatham, SW16",http://www.rightmove.co.uk/property-for-sale/property-59245206.html,http://www.rightmove.co.uk/estate-agents/agent/Purplebricks/covering-London-151079.html,59245206,2019-07-11 22:11:27.502875,12,2,51.431715999999994,-0.132201,Freehold,47.0,56.0,0,3,1.25,3.1999999999999993,-0.9000000000000004,6.549999999999999
600000,2 bedroom flat for sale,"Plato Road, London SW2",http://www.rightmove.co.uk/property-for-sale/property-81816659.html,http://www.rightmove.co.uk/estate-agents/agent/Keating-Estates/Clapham-6280.html,81816659,2019-07-11 22:11:27.502875,12,2,51.46011,-0.125788,Share of Freehold,39.0,59.0,0,3,1.25,6.4,-3.9000000000000004,6.75
600000,2 bedroom flat for sale,"St. Philip Square, Lambeth",http://www.rightmove.co.uk/property-for-sale/property-63156171.html,http://www.rightmove.co.uk/estate-agents/agent/Kinleigh-Folkard-and-Hayward---Sales/Battersea-Park-55348.html,63156171,2019-07-11 22:11:27.502875,12,2,51.470864,-0.14886,Leasehold,39.0,61.0,0,0,1.25,6.4,-5.9,1.75
600000,3 bedroom terraced house for sale,"Giles Coppice, Crystal Palace",http://www.rightmove.co.uk/property-for-sale/property-62016267.html,http://www.rightmove.co.uk/estate-agents/agent/Kinleigh-Folkard-and-Hayward---Sales/Crystal-Palace-85703.html,62016267,2019-07-11 22:11:27.502875,12,3,51.426867,-0.08029700000000001,Freehold,40.0,48.0,5,3,1.25,6.0,4.72,19.97
600000,3 bedroom terraced house for sale,"Westcote Road, Streatham",http://www.rightmove.co.uk/property-for-sale/property-71444302.html,http://www.rightmove.co.uk/estate-agents/agent/Brooks-Estate-Agents/Streatham-49201.html,71444302,2019-07-11 22:11:27.502875,12,3,51.42382,-0.140691,-,51.0,60.0,5,0,1.25,1.5999999999999996,-4.9,2.9499999999999993
600000,2 bedroom flat for sale,"Brayburne Avenue, Brayburne Avenue",http://www.rightmove.co.uk/property-for-sale/property-69680986.html,http://www.rightmove.co.uk/estate-agents/agent/Dexters/Clapham-78413.html,69680986,2019-07-11 22:11:27.502875,12,2,51.468973999999996,-0.13871,-,37.0,59.0,0,0,1.25,7.199999999999999,-3.9000000000000004,4.549999999999999
600000,3 bedroom apartment for sale,"Ruskin Park House, Champion Hill, Denmark Hill, SE5",http://www.rightmove.co.uk/property-for-sale/property-62825955.html,http://www.rightmove.co.uk/estate-agents/agent/Oliver-Burn/Herne-Hill-66898.html,62825955,2019-07-11 22:11:27.502875,12,3,51.466215999999996,-0.08953,Leasehold,32.0,48.0,5,0,1.25,9.2,4.72,20.169999999999998
600000,2 bedroom apartment for sale,"Camberwell On The Green , London, SE5",http://www.rightmove.co.uk/property-for-sale/property-62863089.html,http://www.rightmove.co.uk/estate-agents/agent/Chain-Residential/London-170420.html,62863089,2019-07-11 22:11:27.502875,12,2,51.474564,-0.093559,Leasehold,28.0,46.0,0,0,1.25,10.0,6.04,17.29
600000,3 bedroom terraced house for sale,Kneller Road Brockley SE4,http://www.rightmove.co.uk/property-for-sale/property-60272022.html,http://www.rightmove.co.uk/estate-agents/agent/Acorn/Brockley-50662.html,60272022,2019-07-11 22:11:27.799349,13,3,51.460972,-0.03827,Freehold,26.0,36.0,5,3,1.25,10.0,10.0,29.25
600000,2 bedroom maisonette for sale,"Marney Road, Battersea",http://www.rightmove.co.uk/property-for-sale/property-77482376.html,http://www.rightmove.co.uk/estate-agents/agent/Kinleigh-Folkard-and-Hayward---Sales/Battersea-55345.html,77482376,2019-07-11 22:11:27.799349,13,2,51.462899,-0.15695699999999999,Share of Freehold,42.0,61.0,0,3,1.25,5.199999999999999,-5.9,3.549999999999999
600000,2 bedroom apartment for sale,"Queenstown Road, Battersea, London, SW8",http://www.rightmove.co.uk/property-for-sale/property-74130947.html,http://www.rightmove.co.uk/estate-agents/agent/JOHNSandCO/Nine-Elms-136148.html,74130947,2019-07-11 22:11:27.799349,13,2,51.472752,-0.148784,Leasehold,38.0,60.0,0,0,1.25,6.8,-4.9,3.1500000000000004
600000,3 bedroom bungalow for sale,"Barker Walk, London, SW16",http://www.rightmove.co.uk/property-for-sale/property-71762965.html,http://www.rightmove.co.uk/estate-agents/agent/Townends/Streatham-5876.html,71762965,2019-07-11 22:11:27.799349,13,3,51.436532,-0.133098,Freehold,46.0,56.0,5,3,1.25,3.5999999999999996,-0.9000000000000004,11.95
600000,2 bedroom flat for sale,"Thurlow Park Road, West Dulwich",http://www.rightmove.co.uk/property-for-sale/property-61410177.html,http://www.rightmove.co.uk/estate-agents/agent/Kinleigh-Folkard-and-Hayward---Sales/West-Dulwich-55546.html,61410177,2019-07-11 22:11:27.799349,13,2,51.440588,-0.094542,Leasehold,38.0,46.0,0,0,1.25,6.8,6.04,14.09
600000,2 bedroom flat for sale,"Ashbourne Grove, London SE22",http://www.rightmove.co.uk/property-for-sale/property-70027900.html,http://www.rightmove.co.uk/estate-agents/agent/ludlowthompson/Dulwich---Sales-5483.html,70027900,2019-07-11 22:11:27.799349,13,2,51.458465999999994,-0.076956,-,31.0,45.0,0,0,1.25,9.6,6.699999999999999,17.549999999999997
600000,2 bedroom apartment for sale,"Queenstown Road, Battersea, London, SW8",http://www.rightmove.co.uk/property-for-sale/property-55129488.html,http://www.rightmove.co.uk/estate-agents/agent/JOHNSandCO-New-Homes/London-190682.html,55129488,2019-07-11 22:11:27.799349,13,2,51.472752,-0.148784,Leasehold,38.0,60.0,0,0,1.25,6.8,-4.9,3.1500000000000004
600000,3 bedroom terraced house for sale,"Loxton Road, Forest Hill",http://www.rightmove.co.uk/property-for-sale/property-63240705.html,http://www.rightmove.co.uk/estate-agents/agent/Kinleigh-Folkard-and-Hayward---Sales/Forest-Hill-55462.html,63240705,2019-07-11 22:11:27.799349,13,3,51.439567,-0.043504,Freehold,33.0,37.0,5,3,1.25,8.8,10.0,28.05
600000,3 bedroom ground floor flat for sale,"Playfield Crescent, East Dulwich, SE22",http://www.rightmove.co.uk/property-for-sale/property-62361831.html,http://www.rightmove.co.uk/estate-agents/agent/Hunters/Forest-Hill-114730.html,62361831,2019-07-11 22:11:27.799349,13,3,51.455715999999995,-0.079231,-,32.0,47.0,5,0,1.25,9.2,5.38,20.83
600000,3 bedroom semi-detached house for sale,"Barker Walk, Streatham Hill",http://www.rightmove.co.uk/property-for-sale/property-70759000.html,http://www.rightmove.co.uk/estate-agents/agent/Brooks-Estate-Agents/Streatham-49201.html,70759000,2019-07-11 22:11:27.799349,13,3,51.436384000000004,-0.133271,-,46.0,55.0,5,0,1.25,3.5999999999999996,0.09999999999999964,9.95
600000,2 bedroom apartment for sale,"Camberwell Green,
London,
SE5",http://www.rightmove.co.uk/property-for-sale/property-79959782.html,http://www.rightmove.co.uk/developer/branch/Frasers-Property/Camberwell-on-The-Green-158954.html,79959782,2019-07-11 22:11:27.799349,13,2,51.474564,-0.093559,-,28.0,46.0,0,0,1.25,10.0,6.04,17.29
600000,2 bedroom apartment for sale,"Solway Road, East Dulwich, London, SE22",http://www.rightmove.co.uk/property-for-sale/property-60552069.html,http://www.rightmove.co.uk/estate-agents/agent/Winkworth/Dulwich-47825.html,60552069,2019-07-11 22:11:27.799349,13,2,51.461653999999996,-0.068458,Leasehold,28.0,42.0,0,0,1.25,10.0,8.68,19.93
600000,2 bedroom flat for sale,"Trinity Crescent, Balham, London, SW17",http://www.rightmove.co.uk/property-for-sale/property-72133807.html,http://www.rightmove.co.uk/estate-agents/agent/Rochford-Stokes/Battersea-95104.html,72133807,2019-07-11 22:11:27.799349,13,2,51.438305,-0.160407,-,46.0,62.0,0,0,1.25,3.5999999999999996,-6.9,-2.0500000000000007
600000,2 bedroom apartment for sale,"St. Johns Road, London, SW11",http://www.rightmove.co.uk/property-for-sale/property-81336296.html,http://www.rightmove.co.uk/estate-agents/agent/James-Pendleton/Battersea-Northcote-Road-45741.html,81336296,2019-07-11 22:11:27.799349,13,2,51.461093,-0.16739400000000002,Leasehold,43.0,61.0,0,0,1.25,4.8,-5.9,0.14999999999999947
600000,3 bedroom flat for sale,"Oakdale Road, Streatham, SW16",http://www.rightmove.co.uk/property-for-sale/property-62199288.html,http://www.rightmove.co.uk/estate-agents/agent/Samuel-Estates/Balham-97400.html,62199288,2019-07-11 22:11:27.799349,13,3,51.426468,-0.125669,Leasehold,46.0,55.0,5,0,1.25,3.5999999999999996,0.09999999999999964,9.95
600000,2 bedroom flat for sale,"Clapham Road, SW9",http://www.rightmove.co.uk/property-for-sale/property-82719071.html,http://www.rightmove.co.uk/estate-agents/agent/sellmyhomecouk/London-91928.html,82719071,2019-07-11 22:11:27.799349,13,2,51.46853,-0.127452,-,34.0,55.0,0,0,1.25,8.4,0.09999999999999964,9.75
600000,2 bedroom flat for sale,"Eversleigh Road, Battersea",http://www.rightmove.co.uk/property-for-sale/property-63557418.html,http://www.rightmove.co.uk/estate-agents/agent/Dexters/Battersea-78410.html,63557418,2019-07-11 22:11:27.799349,13,2,51.47064500000001,-0.152947,-,42.0,64.0,0,0,1.25,5.199999999999999,-8.9,-2.450000000000001
600000,2 bedroom flat for sale,"Stockwell Road, BRX, Stockwell Road",http://www.rightmove.co.uk/property-for-sale/property-61341051.html,http://www.rightmove.co.uk/estate-agents/agent/Dexters/New-Homes-Mayfair-187892.html,61341051,2019-07-11 22:11:27.799349,13,2,51.466784999999994,-0.117093,-,34.0,54.0,0,0,1.25,8.4,0.7599999999999998,10.41
563000,2 bedroom apartment for sale,"The Gallery Marketing Suite 
300 Camberwell Road 
SE5 0DL
",http://www.rightmove.co.uk/property-for-sale/property-82513157.html,http://www.rightmove.co.uk/developer/branch/Peabody-Trust/The-Gallery-208802.html,82513157,2019-07-11 22:11:28.111547,14,2,51.475924,-0.094222,Leasehold,27.0,46.0,0,0,2.175,10.0,6.04,18.215
600000,2 bedroom flat for sale,"Brayburne Avenue, London, SW4",http://www.rightmove.co.uk/property-for-sale/property-58212072.html,http://www.rightmove.co.uk/estate-agents/agent/Hamptons-International-Sales/Clapham-37877.html,58212072,2019-07-11 22:11:28.111547,14,2,51.46906,-0.138855,Share of Freehold,37.0,60.0,0,3,1.25,7.199999999999999,-4.9,6.549999999999999
600000,2 bedroom flat for sale,"Brook Drive, Kennington",http://www.rightmove.co.uk/property-for-sale/property-59761809.html,http://www.rightmove.co.uk/estate-agents/agent/Kinleigh-Folkard-and-Hayward---Sales/Kennington-55498.html,59761809,2019-07-11 22:11:28.111547,14,2,51.494769,-0.108419,Share of Freehold,27.0,49.0,0,3,1.25,10.0,4.06,18.31
600000,2 bedroom flat for sale,"Friern Road, East Dulwich",http://www.rightmove.co.uk/property-for-sale/property-82374368.html,http://www.rightmove.co.uk/estate-agents/agent/Kinleigh-Folkard-and-Hayward---Sales/East-Dulwich-52719.html,82374368,2019-07-11 22:11:28.111547,14,2,51.454789,-0.066603,Leasehold,31.0,43.0,0,0,1.25,9.6,8.02,18.869999999999997
600000,2 bedroom maisonette for sale,"East Dulwich Road, East Dulwich, London, SE22",http://www.rightmove.co.uk/property-for-sale/property-81064118.html,http://www.rightmove.co.uk/estate-agents/agent/Knight-Frank/Dulwich-Village-141611.html,81064118,2019-07-11 22:11:28.111547,14,2,51.461952000000004,-0.068649,-,28.0,42.0,0,0,1.25,10.0,8.68,19.93
600000,3 bedroom maisonette for sale,"Stuart Road, Nunhead, SE15",http://www.rightmove.co.uk/property-for-sale/property-82815197.html,http://www.rightmove.co.uk/estate-agents/agent/Mundays/London-143609.html,82815197,2019-07-11 22:11:28.111547,14,3,51.458512,-0.052483,Share of Freehold,28.0,39.0,5,3,1.25,10.0,10.0,29.25
600000,2 bedroom apartment for sale,"Crystal Palace Road, London, SE22",http://www.rightmove.co.uk/property-for-sale/property-82990736.html,http://www.rightmove.co.uk/estate-agents/agent/NoFlies/London-94963.html,82990736,2019-07-11 22:11:28.111547,14,2,51.458107,-0.071501,Share of Freehold,30.0,43.0,0,3,1.25,10.0,8.02,22.27
600000,2 bedroom apartment for sale,"Brayburne Avenue, London, SW4",http://www.rightmove.co.uk/property-for-sale/property-68218171.html,http://www.rightmove.co.uk/estate-agents/agent/Marsh-and-Parsons/Clapham-22233.html,68218171,2019-07-11 22:11:28.111547,14,2,51.468993,-0.138678,Share of Freehold,37.0,59.0,0,3,1.25,7.199999999999999,-3.9000000000000004,7.549999999999999
600000,2 bedroom flat for sale,"Byrne Road, Balham, London, SW12",http://www.rightmove.co.uk/property-for-sale/property-66544795.html,http://www.rightmove.co.uk/estate-agents/agent/Foxtons/Balham-15981.html,66544795,2019-07-11 22:11:28.111547,14,2,51.441371000000004,-0.147284,Share of Freehold,48.0,59.0,0,3,1.25,2.8,-3.9000000000000004,3.1499999999999995
600000,2 bedroom apartment for sale,Help 2 Buy New Build,http://www.rightmove.co.uk/property-for-sale/property-73520837.html,http://www.rightmove.co.uk/estate-agents/agent/Gareth-James-Property/Peckham-Rye-33456.html,73520837,2019-07-11 22:11:28.111547,14,2,51.481998,-0.095054,Freehold,25.0,45.0,0,3,1.25,10.0,6.699999999999999,20.95
600000,2 bedroom apartment for sale,"Queens Road, London",http://www.rightmove.co.uk/property-for-sale/property-63610296.html,http://www.rightmove.co.uk/estate-agents/agent/Barnard-Marcus/Peckham-158978.html,63610296,2019-07-11 22:11:28.111547,14,2,51.47367,-0.05708,Leasehold,22.0,37.0,0,0,1.25,10.0,10.0,21.25
600000,3 bedroom terraced house for sale,"Cranston Road, Forest Hill, London, SE23",http://www.rightmove.co.uk/property-for-sale/property-62275785.html,http://www.rightmove.co.uk/estate-agents/agent/Robinson-Jackson/Sydenham-14743.html,62275785,2019-07-11 22:11:28.111547,14,3,51.438005,-0.041874,Freehold,33.0,37.0,5,3,1.25,8.8,10.0,28.05
600000,2 bedroom apartment for sale,"Mayow Road, Sydenham",http://www.rightmove.co.uk/property-for-sale/property-62122218.html,http://www.rightmove.co.uk/estate-agents/agent/Benjamin-Matthews/Forest-Hill---Sales-99604.html,62122218,2019-07-11 22:11:28.111547,14,2,51.429721,-0.046227,Leasehold,36.0,39.0,0,0,1.25,7.6,10.0,18.85
589950,2 bedroom apartment for sale,"Queenstown Road, Battersea, London, SW8",http://www.rightmove.co.uk/property-for-sale/property-63342990.html,http://www.rightmove.co.uk/estate-agents/agent/James-Pendleton/Land-New-Homes-and-Investments-134735.html,63342990,2019-07-11 22:11:28.418754,15,2,51.47315,-0.148454,Leasehold,38.0,60.0,0,0,1.50125,6.8,-4.9,3.401249999999999
600000,2 bedroom apartment for sale,"Strata, Elephant and Castle, SE1",http://www.rightmove.co.uk/property-for-sale/property-72483811.html,http://www.rightmove.co.uk/estate-agents/agent/MyLondonHome-South-Bank-Division/Central-London-120835.html,72483811,2019-07-11 22:11:28.418754,15,2,51.492965999999996,-0.099538,Leasehold,23.0,46.0,0,0,1.25,10.0,6.04,17.29
600000,3 bedroom house for sale,"Lessingham Avenue, London, SW17",http://www.rightmove.co.uk/property-for-sale/property-71846410.html,http://www.rightmove.co.uk/estate-agents/agent/Winkworth/Tooting-58897.html,71846410,2019-07-11 22:11:28.418754,15,3,51.428632,-0.158748,Freehold,50.0,62.0,5,3,1.25,2.0,-6.9,4.35
600000,2 bedroom apartment for sale,"Lewin Road, Streatham, SW16",http://www.rightmove.co.uk/property-for-sale/property-82169264.html,http://www.rightmove.co.uk/estate-agents/agent/Marlowe-estates/London-123769.html,82169264,2019-07-11 22:11:28.418754,15,2,51.422743,-0.132556,Share of Freehold,51.0,57.0,0,3,1.25,1.5999999999999996,-1.9000000000000004,3.9499999999999993
600000,2 bedroom penthouse for sale,"Triangle Court, 315-317 Camberwell New Road, London, SE5",http://www.rightmove.co.uk/property-for-sale/property-72722665.html,http://www.rightmove.co.uk/estate-agents/agent/NDLDN/London-197795.html,72722665,2019-07-11 22:11:28.418754,15,2,51.474641,-0.09433,Leasehold,28.0,46.0,0,0,1.25,10.0,6.04,17.29
599999,3 bedroom flat for sale,"Bellenden Road, Peckham, London, SE15",http://www.rightmove.co.uk/property-for-sale/property-71012758.html,http://www.rightmove.co.uk/estate-agents/agent/Hindwoods/Dulwich-37574.html,71012758,2019-07-11 22:11:28.418754,15,3,51.464482000000004,-0.075785,-,28.0,45.0,5,0,1.250025,10.0,6.699999999999999,22.950025
599999,3 bedroom flat for sale,"Holmewood Gardens, Brixton Hill, London SW2 3NA",http://www.rightmove.co.uk/property-for-sale/property-62489892.html,http://www.rightmove.co.uk/estate-agents/agent/Simon-Ward-Land-and-Property-Specialists/Upper-Norwood-69758.html,62489892,2019-07-11 22:11:28.418754,15,3,51.447151,-0.12133900000000004,-,43.0,52.0,5,0,1.250025,4.8,2.08,13.130025
599995,3 bedroom semi-detached house for sale,"Beulah Hill, London, SE19",http://www.rightmove.co.uk/property-for-sale/property-62696001.html,http://www.rightmove.co.uk/estate-agents/agent/Streets-Ahead/Crystal-Palace-23060.html,62696001,2019-07-11 22:11:28.418754,15,3,51.418611,-0.101844,-,45.0,53.0,5,0,1.250125,4.0,1.42,11.670125
599995,3 bedroom terraced house for sale,De Frene Road Sydenham SE26,http://www.rightmove.co.uk/property-for-sale/property-72069865.html,http://www.rightmove.co.uk/estate-agents/agent/Acorn/Sydenham-50680.html,72069865,2019-07-11 22:11:28.418754,15,3,51.43145300000001,-0.042268,Freehold,35.0,38.0,5,3,1.250125,8.0,10.0,27.250125
599995,2 bedroom flat for sale,"Ashbourne Grove, London SE22",http://www.rightmove.co.uk/property-for-sale/property-70483891.html,http://www.rightmove.co.uk/estate-agents/agent/ludlowthompson/Dulwich---Sales-5483.html,70483891,2019-07-11 22:11:28.418754,15,2,51.458465999999994,-0.076956,-,31.0,45.0,0,0,1.250125,9.6,6.699999999999999,17.550125
599995,2 bedroom flat for sale,"Reed Place, Clapham, London, SW4",http://www.rightmove.co.uk/property-for-sale/property-80897390.html,http://www.rightmove.co.uk/estate-agents/agent/James-Pendleton/Clapham-Common-and-Brixton-45744.html,80897390,2019-07-11 22:11:28.418754,15,2,51.46165300000001,-0.130883,Leasehold,37.0,58.0,0,0,1.250125,7.199999999999999,-2.9000000000000004,5.5501249999999995
